     3.02           OBSERVATION DATA    G (GPS)             RINEX VERSION / TYPE
teqc  2015Jun23     UNAVCO Archive Ops  20211213 075238 UTC PGM / RUN BY / DATE
Solaris x86 5.10|AMD64|cc SC5.8 -xarch=amd64|=+|=+          COMMENT
BIT 2 OF LLI FLAGS DATA COLLECTED UNDER A/S CONDITION       COMMENT
input file: abbz201507190000a.tgd                           COMMENT
RINEX file created by UNAVCO GPS Archive.                   COMMENT
For more information contact archive@unavco.org             COMMENT
Monument ID: 14840                                          COMMENT
UNAVCO 4-char name:   ABBZ                                  COMMENT
4-char name from Log or data file: ABBZ                     COMMENT
Monument location: -77.4569 166.9089 1734.2656              COMMENT
Visit ID: 112562                                            COMMENT
End of DB comments                                          COMMENT
 SNR is mapped to RINEX snr flag value [0-9]                COMMENT
  L1 & L2: min(max(int(snr_dBHz/6), 0), 9)                  COMMENT
ABBZ                                                        MARKER NAME
GEODETIC                                                    MARKER TYPE
Kyle, Philip        NMT                                     OBSERVER / AGENCY
5115K74978          TRIMBLE NETR9       4.85                REC # / TYPE / VERS
12561303            TRM41249.00     NONE                    ANT # / TYPE
 -1353856.8945   314830.6876 -6205742.1059                  APPROX POSITION XYZ
        0.0000        0.0000        0.0000                  ANTENNA: DELTA H/E/N
G    4 C1C C2W L1P L2W                                      SYS / # / OBS TYPES
    15.000                                                  INTERVAL
  2015    07    19    00    00   00.0000000     GPS         TIME OF FIRST OBS
  2015    07    19    23    59   45.0000000     GPS         TIME OF LAST OBS
    30                                                      # OF SATELLITES
   G01  1941  1854  1941  1854                              PRN / # OF OBS
   G02  1922  1802  1922  1802                              PRN / # OF OBS
   G03  1926  1882  1926  1882                              PRN / # OF OBS
   G04  1982  1912  1982  1912                              PRN / # OF OBS
   G05  2025  2002  2025  2002                              PRN / # OF OBS
   G06  2034  1976  2034  1976                              PRN / # OF OBS
   G07  1994  1943  1994  1943                              PRN / # OF OBS
   G09  1922  1887  1922  1887                              PRN / # OF OBS
   G11  2011  1908  2011  1908                              PRN / # OF OBS
   G12  1977  1910  1977  1910                              PRN / # OF OBS
   G13  1947  1793  1947  1793                              PRN / # OF OBS
   G14  1904  1763  1904  1763                              PRN / # OF OBS
   G15  2041  1997  2041  1997                              PRN / # OF OBS
   G16  2061  2008  2061  2008                              PRN / # OF OBS
   G17  1881  1800  1881  1800                              PRN / # OF OBS
   G18  1812  1587  1812  1587                              PRN / # OF OBS
   G19  2079  2015  2079  2015                              PRN / # OF OBS
   G20  1956  1817  1956  1817                              PRN / # OF OBS
   G21  1913  1757  1913  1757                              PRN / # OF OBS
   G22  1926  1855  1926  1855                              PRN / # OF OBS
   G23  1979  1891  1979  1891                              PRN / # OF OBS
   G24  1972  1865  1972  1865                              PRN / # OF OBS
   G25  1945  1820  1945  1820                              PRN / # OF OBS
   G26  2012  1979  2012  1979                              PRN / # OF OBS
   G27  1936  1918  1936  1918                              PRN / # OF OBS
   G28  1841  1702  1841  1702                              PRN / # OF OBS
   G29  1995  1905  1995  1905                              PRN / # OF OBS
   G30  2001  1921  2001  1921                              PRN / # OF OBS
   G31  2021  1952  2021  1952                              PRN / # OF OBS
   G32  1996  1871  1996  1871                              PRN / # OF OBS
                                                            END OF HEADER
> 2015 07 19 00 00 00.0000000  0 10
G04  23299637.109    23299640.129 5 122440368.761 8  95408123.50345
G11  24033202.547    24033204.746 4 126295265.169 7  98411944.66444
G14  24191714.477                   127128337.81515
G15  22621249.406    22621251.781 5 118875481.704 7  92630241.51045
G18  20928744.125    20928745.914 6 109981293.845 8  85699702.35446
G19  22397361.672    22397362.699 6 117698935.043 8  91713448.20746
G22  20822467.477    20822467.918 6 109422791.431 8  85264519.77646
G24  22907727.289    22907732.887 4 120380962.929 7  93803351.19444
G27  23827164.883    23827169.719 3 125212588.537 6  97568267.12843
G28  21969433.359    21969435.793 5 115450099.390 7  89961166.65045
> 2015 07 19 00 00 15.0000000  0 10
G04  23291749.547    23291752.742 5 122398917.707 7  95375823.91845
G11  24026031.125    24026033.031 4 126257577.694 7  98382577.84744
G14  24180210.781                   127067881.264 5
G15  22628337.242    22628339.266 5 118912725.675 7  92659262.77245
G18  20934333.813    20934336.246 6 110010666.967 8  85722590.50046
G19  22400880.813    22400881.781 5 117717428.744 8  91727858.87245
G22  20819411.414    20819411.973 6 109406732.676 8  85252006.49646
G24  22900235.117    22900240.539 4 120341589.564 7  93772670.68244
G27  23836772.516    23836777.645 4 125263073.782 6  97607606.24244
G28  21968758.633    21968760.422 5 115446554.388 7  89958404.31145
> 2015 07 19 00 00 30.0000000  0 10
G04  23283877.297    23283880.375 4 122357552.189 7  95343590.93044
G11  24018874.766    24018876.965 4 126219971.924 7  98353274.58244
G14  24168712.734                   127007465.19715
G15  22635444.398    22635446.598 5 118950076.096 7  92688367.04045
G18  20939950.516    20939952.715 6 110040183.010 8  85745590.01346
G19  22404428.695    22404429.488 6 117736070.908 8  91742385.22346
G22  20816384.133    20816384.867 6 109390823.877 8  85239610.04646
G24  22892762.570    22892768.402 4 120302324.817 7  93742074.83244
G27  23846393.109    23846398.531 3 125313633.519 6  97647003.44343
G28  21968120.703    21968122.609 5 115443201.070 7  89955791.35045
> 2015 07 19 00 00 45.0000000  0 10
G04  23276022.313    23276025.977 5 122316272.694 7  95311425.01545
G11  24011734.203    24011736.227 4 126182448.571 7  98324035.65344
G14  24157223.352                   126947089.693 6
G15  22642572.070    22642574.504 5 118987532.597 7  92717553.90945
G18  20945594.133    20945595.746 5 110069841.848 8  85768700.76245
G19  22408004.008    22408005.035 6 117754861.428 8  91757027.22546
G22  20813385.258    20813386.227 6 109375065.076 8  85227330.38946
G24  22885312.391    22885318.340 5 120263169.524 6  93711564.24445
G27  23856029.352    23856033.250 3 125364267.385 6  97686458.44243
G28  21967518.930    21967520.953 5 115440039.526 7  89953327.81045
> 2015 07 19 00 01 00.0000000  0 10
G04  23268183.570    23268187.645 5 122275079.911 8  95279326.81445
G11  24004609.578    24004611.660 4 126145007.994 7  98294861.18344
G14  24145742.875                   126886755.80116
G15  22649720.680    22649722.645 5 119025095.578 7  92746823.77545
G18  20951265.672    20951267.344 6 110099643.820 8  85791923.04346
G19  22411608.328    22411609.355 5 117773800.504 8  91771784.94945
G22  20810415.102    20810415.602 6 109359457.391 8  85215168.65046
G24  22877881.383    22877887.508 4 120224124.043 7  93681139.22144
G27  23865679.164    23865683.121 3 125414975.441 6  97725971.20843
G28  21966953.742    21966955.883 5 115437070.202 8  89951014.05545
> 2015 07 19 00 01 15.0000000  0 10
G04  23260360.984    23260365.000 5 122233972.982 8  95247295.44545
G11  23997500.695    23997502.426 4 126107649.615 7  98265750.76144
G14  24134269.227                   126826462.61315
G15  22656888.578    22656890.484 5 119062763.825 7  92776175.66845
G18  20956964.000    20956965.496 6 110129587.725 8  85815255.92846
G19  22415240.680    22415240.828 6 117792886.956 8  91786657.49446
G22  20807473.406    20807474.492 6 109343999.141 8  85203123.15646
G24  22870472.438    22870478.270 4 120185188.123 7  93650799.54844
G27  23875342.016    23875345.855 3 125465756.383 6  97765540.74243
G28  21966425.500    21966426.996 5 115434292.138 8  89948849.32145
> 2015 07 19 00 01 30.0000000  0 10
G04  23252555.695    23252559.418 5 122192953.348 7  95215332.03145
G11  23990407.109    23990410.539 4 126070374.495 7  98236705.17344
G14  24122802.195                   126766211.628 6
G15  22664076.227    22664078.836 5 119100538.147 7  92805610.22945
G18  20962689.055    20962690.961 6 110159674.413 8  85838700.13846
G19  22418900.711    22418901.328 5 117812121.865 8  91801645.76545
G22  20804561.023    20804561.934 6 109328692.108 8  85191195.50446
G24  22863084.156    22863089.578 4 120146362.673 7  93620545.96444
G27  23885018.859    23885023.227 3 125516610.893 6  97805167.62243
G28  21965932.633    21965934.480 5 115431706.429 7  89946834.48045
> 2015 07 19 00 01 45.0000000  0 10
G04  23244766.164    23244769.594 5 122152020.601 7  95183436.22845
G11  23983329.641    23983332.367 4 126033182.804 7  98207724.64144
G14  24111346.555                   126706003.04816
G15  22671284.234    22671287.195 5 119138417.662 7  92835126.73245
G18  20968441.094    20968443.410 6 110189903.035 8  85862254.94146
G19  22422589.484    22422589.984 5 117831504.410 8  91816749.09045
G22  20801676.906    20801677.816 6 109313536.143 8  85179385.64546
G24  22855717.594    22855722.664 4 120107647.854 7  93590378.60344
G27  23894710.555    23894714.395 3 125567538.193 6  97844851.21443
G28  21965477.852    21965479.523 5 115429312.934 7  89944969.45845
> 2015 07 19 00 02 00.0000000  0 10
G04  23236993.828    23236997.199 5 122111175.620 7  95151609.02245
G11  23976268.086    23976270.344 4 125996074.532 7  98178809.07644
G14  24099897.578                   126645836.62015
G15  22678512.539    22678515.266 5 119176402.180 7  92864725.07745
G18  20974220.609    20974222.516 6 110220273.443 8  85885920.21446
G19  22426305.859    22426306.711 6 117851034.522 8  91831967.37946
G22  20798821.539    20798822.156 6 109298531.181 8  85167693.50546
G24  22848370.188    22848376.605 5 120069043.766 7  93560297.51445
G27  23904415.789    23904418.574 3 125618537.923 6  97884591.25843
G28  21965058.805    21965060.594 5 115427111.413 7  89943254.02745
> 2015 07 19 00 02 15.0000000  0 10
G04  23229237.797    23229241.168 5 122070418.505 7  95119850.20445
G11  23969223.016    23969224.922 4 125959050.327 7  98149959.08044
G14  24088456.273                   126585713.000 5
G15  22685760.391    22685763.703 5 119214491.752 7  92894405.24645
G18  20980026.789    20980028.871 6 110250785.656 8  85909695.99946
G19  22430050.141    22430051.109 6 117870712.438 8  91847300.82746
G22  20795994.969    20795995.879 6 109283677.532 8  85156119.23846
G24  22841045.094    22841051.805 5 120030551.153 7  93530303.27845
G27  23914133.531    23914138.602 3 125669610.015 6  97924387.66743
G28  21964676.859    21964678.297 5 115425102.074 8  89941688.30345
> 2015 07 19 00 02 30.0000000  0 10
G04  23221498.961    23221502.156 4 122029749.330 7  95088159.94044
G11  23962193.875    23962195.430 4 125922110.156 7  98121174.55644
G14  24077024.352    24077026.199 2 126525632.525 5  98591386.31852
G15  22693029.023    22693031.867 5 119252685.881 7  92924166.89645
G18  20985859.750    20985861.949 6 110281438.915 8  85933581.63746
G19  22433823.422    22433823.746 6 117890537.690 8  91862749.12246
G22  20793197.273    20793198.594 6 109268975.090 8  85144662.74446
G24  22833742.414    22833748.539 4 119992169.954 7  93500395.84644
G27  23923866.758    23923870.480 3 125720753.924 6  97964240.08343
G28  21964330.633    21964332.246 5 115423284.701 7  89940272.17745
> 2015 07 19 00 02 45.0000000  0 10
G04  23213776.086    23213779.516 5 121989168.220 7  95056538.33345
G11  23955180.367    23955182.625 4 125885254.060 7  98092455.51944
G14  24065599.297    24065602.727 2 126465595.386 5  98544604.12242
G15  22700317.141    22700319.574 5 119290984.123 7  92954009.65145
G18  20991719.859    20991721.590 6 110312232.958 8  85957576.97846
G19  22437623.070    22437624.156 6 117910509.732 8  91878311.75346
G22  20790428.398    20790429.426 6 109254423.851 8  85133324.07446
G24  22826459.484    22826465.375 4 119953900.380 7  93470575.39344
G27  23933612.383    23933616.281 3 125771969.069 6  98004147.99543
G28  21964021.398    21964023.129 5 115421659.300 7  89939005.64145
> 2015 07 19 00 03 00.0000000  0 10
G04  23206070.781    23206074.914 4 121948675.766 7  95024985.76944
G11  23948182.703    23948184.141 4 125848482.857 7  98063802.65644
G14  24054182.695    24054186.594 2 126405602.136 5  98497856.04342
G15  22707624.500    22707627.344 5 119329386.407 7  92983933.46345
G18  20997606.695    20997608.367 6 110343168.194 8  85981682.33046
G19  22441451.641    22441452.551 6 117930629.280 8  91893989.47346
G22  20787688.031    20787688.648 6 109240024.421 8  85122103.78346
G24  22819198.719    22819204.551 5 119915743.221 7  93440842.54145
G27  23943372.117    23943375.547 3 125823255.367 6  98044111.32043
G28  21963748.375    21963750.047 5 115420226.213 7  89937888.92645
> 2015 07 19 00 03 15.0000000  0 10
G04  23198382.289    23198385.836 4 121908271.977 7  94993502.24244
G11  23941201.500    23941203.348 4 125811796.319 7  98035215.76544
G14  24042775.430    24042778.273 2 126345653.039 5  98451142.45542
G15  22714951.969    22714955.047 5 119367892.480 7  93013938.17545
G18  21003520.188    21003522.328 5 110374243.937 8  86005897.19545
G19  22445307.820    22445308.789 5 117950895.402 8  91909781.30545
G22  20784976.570    20784977.656 6 109225776.518 8  85111001.52246
G24  22811959.016    22811965.023 5 119877698.351 7  93411197.22745
G27  23953144.711    23953148.434 3 125874612.296 6  98084129.67443
G28  21963512.125    21963514.090 4 115418985.286 7  89936921.96844
> 2015 07 19 00 03 30.0000000  0 10
G04  23190710.641    23190714.656 5 121867957.272 7  94962088.11745
G11  23934236.336    23934238.125 4 125775194.698 7  98006695.01844
G14  24031375.305    24031379.203 2 126285748.258 5  98404463.31042
G15  22722299.633    22722302.418 5 119406502.091 7  93044023.56845
G18  21009460.000    21009461.848 6 110405459.944 8  86030221.38246
G19  22449192.328    22449193.180 6 117971308.015 8  91925687.26146
G22  20782294.500    20782295.117 6 109211680.292 8  85100017.46246
G24  22804741.234    22804746.656 5 119839766.106 7  93381639.64245
G27  23962930.977    23962935.754 3 125926039.614 6  98124202.87743
G28  21963313.164    21963314.309 5 115417936.458 7  89936104.65745
> 2015 07 19 00 03 45.0000000  0 10
G04  23183056.359    23183060.492 5 121827732.001 7  94930743.75445
G11  23927287.648    23927289.438 4 125738678.343 7  97978240.77644
G14  24019985.070    24019989.086 2 126225888.118 5  98357818.94142
G15  22729665.914    22729669.168 5 119445214.769 7  93074189.28245
G18  21015426.953    21015428.859 6 110436815.789 8  86054654.50346
G19  22453105.008    22453105.684 5 117991866.837 8  91941707.11045
G22  20779640.945    20779641.914 6 109197735.915 8  85089151.74846
G24  22797543.922    22797549.578 5 119801946.916 7  93352170.17145
G27  23972729.734    23972735.215 3 125977536.834 6  98164330.57043
G28  21963149.867    21963151.598 5 115417079.725 7  89935437.03145
> 2015 07 19 00 04 00.0000000  0 10
G04  23175418.531    23175422.430 5 121787596.188 7  94899469.08945
G11  23920354.359    23920357.320 4 125702247.309 7  97949852.94644
G14  24008602.797    24008607.164 2 126166073.092 5  98311209.83842
G15  22737052.211    22737055.172 5 119484030.352 7  93104435.16745
G18  21021420.305    21021422.445 6 110468311.316 8  86079196.45246
G19  22457044.883    22457045.676 5 118012572.108 8  91957841.12745
G22  20777016.344    20777017.664 6 109183943.396 8  85078404.36146
G24  22790369.359    22790375.074 4 119764240.968 7  93322788.92944
G27  23982542.719    23982548.258 3 126029103.557 6  98204512.41443
G28  21963023.422    21963025.270 5 115416415.206 7  89934919.21845
> 2015 07 19 00 04 15.0000000  0 10
G04  23167797.938    23167801.895 5 121747550.153 7  94868264.34745
G11  23913438.922    23913440.301 4 125665902.128 7  97921532.05444
G14  23997228.406    23997232.773 2 126106303.286 5  98264635.89142
G15  22744458.070    22744461.324 5 119522948.719 7  93134761.12945
G18  21027440.461    21027442.602 5 110499946.232 8  86103847.01145
G19  22461012.281    22461013.484 5 118033423.712 8  91974089.27445
G22  20774420.695    20774421.488 6 109170302.820 8  85067775.34546
G24  22783216.047    22783220.941 4 119726648.604 7  93293496.19644
G27  23992368.344    23992373.707 3 126080739.595 6  98244748.27143
G28  21962933.375    21962935.105 4 115415942.878 7  89934551.17244
> 2015 07 19 00 04 30.0000000  0 10
G04  23160194.477    23160198.668 5 121707594.195 7  94837129.82045
G11  23906538.531    23906540.906 4 125629642.618 7  97893277.88744
G14  23985864.234    23985867.488 2 126046579.084 5  98218097.59042
G15  22751883.461    22751886.480 5 119561969.453 7  93165166.89545
G18  21033486.867    21033489.477 6 110531720.147 8  86128605.88546
G19  22465007.969    22465008.996 6 118054421.010 8  91990450.88546
G22  20771853.859    20771854.477 6 109156814.066 8  85057264.57646
G24  22776084.078    22776088.504 5 119689169.818 7  93264291.94045
G27  24002207.039    24002213.516 3 126132444.293 6  98285037.66843
G28  21962880.016    21962881.746 5 115415662.381 7  89934332.55945
> 2015 07 19 00 04 45.0000000  0 10
G04  23152608.523    23152612.656 5 121667728.711 7  94806065.76945
G11  23899655.359    23899657.324 4 125593469.610 7  97865091.17044
G14  23974507.141    23974509.984 2 125986901.044 6  98171595.19342
G15  22759328.680    22759331.465 5 119601092.431 7  93195652.33445
G18  21039559.445    21039561.938 5 110563633.341 8  86153473.36145
G19  22469031.688    22469032.422 5 118075564.178 8  92006926.11345
G22  20769316.234    20769316.559 6 109143478.060 8  85046872.98046
G24  22768973.656    22768978.668 5 119651805.690 7  93235177.04645
G27  24012059.508    24012065.164 3 126184217.690 6  98325380.56843
G28  21962863.914    21962865.293 5 115415574.385 7  89934264.00645
> 2015 07 19 00 05 00.0000000  0 10
G04  23145039.813    23145043.711 5 121627953.797 7  94775072.30245
G11  23892787.953    23892790.387 4 125557382.863 7  97836971.62844
G14  23963159.234    23963162.898 2 125927269.394 5  98125128.93242
G15  22766792.484    22766795.797 5 119640317.287 7  93226217.21645
G18  21045658.961    21045661.336 6 110595684.962 8  86178448.62846
G19  22473082.523    22473084.078 5 118096852.966 8  92023514.88945
G22  20766807.344    20766808.488 6 109130294.275 8  85036599.95046
G24  22761884.859    22761890.457 4 119614555.769 7  93206151.12644
G27  24021924.211    24021930.395 3 126236059.125 6  98365776.47643
G28  21962883.773    21962884.977 5 115415678.501 7  89934345.15145
> 2015 07 19 00 05 15.0000000  0 10
G04  23137488.078    23137491.918 5 121588269.707 7  94744149.57645
G11  23885937.172    23885939.488 4 125521382.734 7  97808919.64344
G14  23951820.477    23951824.316 2 125867684.141 6  98078698.78342
G15  22774276.242    22774278.969 5 119679643.415 7  93256860.97445
G18  21051784.234    21051786.375 6 110627874.927 8  86203531.73646
G19  22477161.281    22477162.367 5 118118286.739 8  92040216.55445
G22  20764327.328    20764328.180 6 109117262.579 8  85026445.26846
G24  22754817.961    22754823.559 4 119577420.475 7  93177214.53944
G27  24031803.266    24031808.160 3 126287968.373 6  98406225.27443
G28  21962939.797    21962941.703 4 115415974.639 7  89934575.89344
> 2015 07 19 00 05 30.0000000  0 10
G04  23129953.797    23129957.813 5 121548676.523 7  94713297.76045
G11  23879103.102    23879105.418 4 125485469.051 7  97780934.95844
G14  23940490.352    23940495.598 2 125808146.175 6  98032305.83242
G15  22781779.289    22781782.016 5 119719070.449 7  93287583.36145
G18  21057936.125    21057938.559 6 110660202.510 8  86228722.05946
G19  22481267.602    22481268.629 5 118139865.001 8  92057030.61245
G22  20761876.445    20761877.824 6 109104382.925 8  85016409.15246
G24  22747773.391    22747779.223 4 119540399.723 7  93148367.23844
G27  24041694.398    24041698.648 3 126339944.581 6  98446726.19043
G28  21963032.164    21963033.953 5 115416462.559 7  89934956.09345
> 2015 07 19 00 05 45.0000000  0 10
G04  23122436.742    23122440.406 5 121509174.950 7  94682517.36945
G11  23872285.961    23872287.164 4 125449642.724 7  97753018.42644
G14  23929171.055    23929174.074 2 125748655.242 6  97985949.32642
G15  22789301.422    22789303.914 5 119758598.605 7  93318384.55945
G18  21064114.656    21064116.504 6 110692668.109 8  86254019.91646
G19  22485401.422    22485402.156 6 118161588.717 8  92073958.21246
G22  20759454.820    20759455.320 6 109091656.010 8  85006491.93646
G24  22740750.000    22740755.832 5 119503494.675 7  93119610.08745
G27  24051597.188    24051602.551 3 126391987.883 6  98487279.44343
G28  21963162.109    21963163.781 5 115417142.667 7  89935486.06445
> 2015 07 19 00 06 00.0000000  0 10
G04  23114937.500    23114940.813 5 121469765.208 7  94651808.46645
G11  23865484.891    23865486.914 4 125413903.863 7  97725169.98244
G14  23917858.797    23917863.105 2 125689212.135 6  97939630.08542
G15  22796842.156    22796845.117 5 119798227.861 7  93349264.57945
G18  21070318.477    21070320.676 6 110725271.521 8  86279425.16746
G19  22489563.500    22489563.590 5 118183457.492 8  92090998.83045
G22  20757061.883    20757062.617 6 109079082.278 8  84996694.20646
G24  22733749.797    22733754.809 5 119466705.339 7  93090943.12545
G27  24061514.250    24061518.793 3 126444098.142 6  98527884.84743
G28  21963328.070    21963329.684 5 115418015.195 7  89936165.93045
> 2015 07 19 00 06 15.0000000  0 10
G04  23107455.531    23107459.254 5 121430447.742 7  94621171.58045
G11  23858700.547    23858702.102 4 125378252.659 7  97697389.85244
G14  23906556.461    23906560.008 2 125629816.939 6  97893348.07542
G15  22804402.297    22804405.375 5 119837957.674 7  93380222.94545
G18  21076548.609    21076551.219 6 110758012.361 8  86304937.52446
G19  22493752.398    22493752.898 5 118205470.759 8  92108152.05045
G22  20754698.164    20754699.719 6 109066661.362 8  84987015.46446
G24  22726771.180    22726776.191 4 119430031.954 7  93062366.52444
G27  24071443.328    24071447.930 3 126496274.682 6  98568541.86443
G28  21963530.219    21963532.359 4 115419079.876 7  89936995.54944
> 2015 07 19 00 06 30.0000000  0 10
G04  23099991.297    23099994.551 5 121391222.709 7  94590606.65945
G11  23851933.227    23851935.074 4 125342689.655 7  97669678.46544
G14  23895263.398    23895267.473 2 125570470.340 6  97847104.00642
G15  22811981.680    22811983.879 5 119877787.884 7  93411259.50145
G18  21082805.016    21082807.684 5 110790890.524 8  86330556.91145
G19  22497968.180    22497968.855 5 118227628.823 8  92125418.12245
G22  20752364.070    20752365.449 6 109054394.040 8  84977456.59746
G24  22719814.680    22719819.516 4 119393474.995 7  93033880.62344
G27  24081384.406    24081388.715 3 126548517.607 6  98609250.66243
G28  21963769.703    21963771.785 4 115420336.833 7  89937974.95944
> 2015 07 19 00 06 45.0000000  0 10
G04  23092544.625    23092548.523 5 121352090.401 7  94560113.92845
G11  23845182.398    23845184.656 4 125307214.985 7  97642035.89244
G14  23883979.313    23883983.094 2 125511172.529 6  97800897.86142
G15  22819580.281    22819582.949 5 119917718.424 7  93442374.21245
G18  21089087.766    21089090.258 5 110823905.777 8  86356283.11545
G19  22502212.133    22502213.336 5 118249931.632 8  92142796.98745
G22  20750058.727    20750060.164 6 109042280.407 8  84968017.59446
G24  22712879.875    22712885.883 4 119357034.920 7  93005485.81644
G27  24091337.977    24091342.988 3 126600826.385 6  98650010.75743
G28  21964046.016    21964046.867 5 115421786.160 7  89939104.25645
> 2015 07 19 00 07 00.0000000  0 10
G04  23085115.563    23085119.344 5 121313050.703 7  94529693.34445
G11  23838448.281    23838450.539 4 125271828.229 7  97614461.81544
G14  23872704.273    23872708.699 2 125451923.894 6  97754730.15942
G15  22827198.047    22827200.188 5 119957748.318 7  93473566.33345
G18  21095396.086    21095398.109 5 110857057.163 8  86382115.40145
G19  22506484.258    22506484.875 5 118272378.180 8  92160287.79345
G22  20747782.531    20747783.559 6 109030319.502 8  84958697.52646
G24  22705968.102    22705973.289 5 119320711.315 7  92977181.72245
G27  24101305.063    24101309.371 3 126653200.200 6  98690821.52343
G28  21964357.625    21964360.117 5 115423427.422 7  89940383.18945
> 2015 07 19 00 07 15.0000000  0 10
G04  23077704.344    23077707.832 5 121274104.284 7  94499345.56445
G11  23831731.719    23831733.039 4 125236530.156 7  97586956.83944
G14  23861438.266    23861442.633 2 125392724.447 6  97708600.81442
G15  22834833.539    22834836.734 5 119997877.568 7  93504835.88645
G18  21101730.875    21101733.133 5 110890344.880 8  86408053.90545
G19  22510782.930    22510783.371 5 118294968.774 8  92177890.94845
G22  20745535.250    20745536.160 6 109018511.823 8  84949496.84746
G24  22699077.258    22699083.441 4 119284504.791 7  92948968.86544
G27  24111283.359    24111287.844 3 126705638.879 6  98731682.83743
G28  21964706.813    21964708.367 4 115425260.800 8  89941811.82244
> 2015 07 19 00 07 30.0000000  0 10
G04  23070311.172    23070314.836 5 121235251.084 7  94469070.37045
G11  23825031.344    23825033.191 4 125201320.908 7  97559521.06144
G14  23850183.453    23850186.824 2 125333574.448 6  97662509.99642
G15  22842489.133    22842492.563 5 120038106.006 7  93536182.74045
G18  21108091.008    21108093.383 5 110923768.608 8  86434098.37645
G19  22515109.195    22515109.695 5 118317703.025 8  92195606.05045
G22  20743317.891    20743318.918 6 109006857.333 8  84940415.43846
G24  22692209.906    22692215.680 4 119248415.720 7  92920847.52844
G27  24121274.422    24121279.492 3 126758142.100 6  98772594.43443
G28  21965092.125    21965094.090 5 115427286.181 7  89943390.04045
> 2015 07 19 00 07 45.0000000  0 10
G04  23062934.547    23062939.207 5 121196491.270 7  94438868.01245
G11  23818348.219    23818350.125 4 125166200.363 7  97532154.40844
G14  23838935.859    23838940.109 3 125274474.120 6  97616457.81043
G15  22850162.859    22850166.230 5 120078433.001 7  93567606.40045
G18  21114477.078    21114479.453 5 110957327.643 8  86460248.26745
G19  22519462.570    22519462.543 5 118340580.277 8  92213432.44645
G22  20741128.914    20741129.941 6 108995355.582 8  84931452.80546
G24  22685365.008    22685370.313 4 119212443.834 7  92892817.47444
G27  24131277.492    24131282.973 3 126810709.181 6  98813555.78943
G28  21965513.875    21965515.137 4 115429503.261 7  89945117.60544
> 2015 07 19 00 08 00.0000000  0 10
G04  23055577.234    23055580.664 5 121157825.496 7  94408738.82345
G11  23811682.320    23811683.992 4 125131169.471 7  97504857.61544
G14  23827700.109    23827704.066 3 125215424.353 6  97570444.95143
G15  22857856.602    22857858.918 5 120118859.071 7  93599107.23345
G18  21120888.742    21120891.645 6 110991022.450 8  86486503.95246
G19  22523843.242    22523843.977 5 118363601.081 8  92231370.70445
G22  20738969.680    20738970.355 6 108984008.259 8  84922610.82346
G24  22678542.734    22678548.332 5 119176590.351 7  92864879.70745
G27  24141292.617    24141297.453 3 126863340.386 6  98854567.09843
G28  21965972.578    21965974.426 4 115431912.686 7  89946995.07144
> 2015 07 19 00 08 15.0000000  0 10
G04  23048237.000    23048240.840 5 121119253.759 7  94378682.93145
G11  23805032.977    23805035.293 4 125096227.847 7  97477630.32344
G14  23816473.133    23816476.270 3 125156425.321 6  97524471.73343
G15  22865566.820    22865570.719 5 120159383.364 7  93630684.62645
G18  21127327.063    21127329.496 6 111024852.405 8  86512864.97546
G19  22528251.016    22528251.809 5 118386765.105 8  92249420.60145
G22  20736839.250    20736840.570 6 108972814.458 8  84913888.44846
G24  22671742.484    22671747.848 5 119140855.173 7  92837034.14345
G27  24151320.195    24151324.973 3 126916035.080 6  98895627.89343
G28  21966467.938    21966469.492 5 115434514.072 7  89949022.12145
> 2015 07 19 00 08 30.0000000  0 10
G04  23040915.000    23040918.723 5 121080776.668 7  94348700.84245
G11  23798401.117    23798402.613 4 125061375.994 7  97450473.07244
G14  23805256.164    23805259.418 3 125097477.064 6  97478538.12143
G15  22873297.656    22873300.852 5 120200005.631 7  93662338.34345
G18  21133790.688    21133792.359 6 111058817.120 8  86539330.94746
G19  22532686.273    22532686.480 5 118410071.979 8  92267581.74445
G22  20734738.742    20734739.594 6 108961774.299 8  84905285.68446
G24  22664965.531    22664970.367 5 119105238.344 7  92809280.74745
G27  24161359.289    24161364.711 3 126968792.827 6  98936737.83943
G28  21966998.602    21967000.801 4 115437307.243 7  89951198.59644
> 2015 07 19 00 08 45.0000000  0 10
G04  23033611.078    23033614.977 5 121042394.055 7  94318792.30745
G11  23791786.234    23791787.848 4 125026614.297 7  97423386.00144
G14  23794048.242    23794051.613 3 125038580.220 6  97432644.49743
G15  22881046.430    22881049.391 5 120240725.778 7  93694068.31545
G18  21140279.336    21140281.535 5 111092916.503 8  86565901.83845
G19  22537148.828    22537149.387 5 118433521.840 8  92285854.40445
G22  20732667.094    20732667.828 6 108950888.163 8  84896802.97246
G24  22658209.602    22658215.316 5 119069740.460 7  92781620.02445
G27  24171410.883    24171416.480 3 127021613.384 6  98977896.72243
G28  21967567.680    21967568.941 5 115440292.555 7  89953524.82045
> 2015 07 19 00 09 00.0000000  0 10
G04  23026325.016    23026328.914 5 121004106.477 7  94288957.77445
G11  23785187.992    23785190.836 4 124991942.818 7  97396369.21844
G14  23782850.375    23782853.863 3 124979735.025 6  97386791.13043
G15  22888813.523    22888816.953 5 120281543.353 7  93725874.21345
G18  21146793.836    21146795.742 5 111127150.478 8  86592577.68645
G19  22541638.344    22541638.727 5 118457114.127 8  92304237.96945
G22  20730624.688    20730625.246 6 108940155.900 8  84888440.15546
G24  22651476.930    22651482.996 5 119034361.826 7  92754052.29245
G27  24181474.930    24181479.590 3 127074496.315 6  99019104.19443
G28  21968171.906    21968173.578 5 115443469.740 7  89956000.55045
> 2015 07 19 00 09 15.0000000  0 10
G04  23019057.375    23019061.508 5 120965914.276 7  94259197.65645
G11  23778607.461    23778609.836 4 124957361.942 7  97369423.08744
G14  23771661.945    23771665.961 3 124920941.706 6  97340978.19643
G15  22896599.430    22896602.215 5 120322458.386 7  93757756.08045
G18  21153333.156    21153336.059 5 111161518.463 8  86619357.89445
G19  22546154.875    22546155.258 5 118480848.758 7  92322732.47145
G22  20728612.305    20728612.629 6 108929577.803 8  84880197.50846
G24  22644767.953    22644773.199 5 118999102.423 7  92726577.44445
G27  24191549.891    24191554.551 3 127127441.273 6  99060359.97843
G28  21968812.945    21968814.266 4 115446838.973 7  89958625.93144
> 2015 07 19 00 09 30.0000000  0 10
G04  23011808.102    23011812.000 5 120927817.532 7  94229511.87345
G11  23772044.633    23772046.656 4 124922871.776 7  97342547.61644
G14  23760483.883    23760488.016 2 124862200.540 6  97295205.78842
G15  22904403.930    22904406.891 4 120363470.376 7  93789713.48444
G18  21159898.742    21159901.000 5 111196020.432 8  86646242.61445
G19  22550698.539    22550698.805 5 118504725.629 7  92341337.78145
G22  20726628.758    20726629.258 6 108919153.902 8  84872075.01946
G24  22638080.688    22638086.988 5 118963962.966 7  92699196.04045
G27  24201636.836    24201641.965 3 127180447.949 6  99101663.85743
G28  21969490.789    21969492.227 5 115450400.104 7  89961400.87745
> 2015 07 19 00 09 45.0000000  0 10
G04  23004576.555    23004580.219 5 120889816.353 7  94199900.54445
G11  23765498.641    23765500.137 4 124888472.316 7  97315742.84444
G14  23749316.289    23749320.246 3 124803512.264 6  97249474.79043
G15  22912226.242    22912228.852 5 120404578.769 7  93821745.98945
G18  21166489.625    21166491.766 5 111230655.788 8  86673231.25245
G19  22555268.742    22555269.887 5 118528744.224 7  92360053.53345
G22  20724673.914    20724674.473 6 108908883.723 8  84864072.30646
G24  22631417.047    22631422.117 5 118928943.076 7  92671907.82145
G27  24211735.148    24211740.219 3 127233515.801 6  99143015.39143
G28  21970204.742    21970206.414 4 115454152.612 7  89964324.91544
> 2015 07 19 00 10 00.0000000  0 10
G04  22997363.336    22997366.941 5 120851911.356 7  94170364.20045
G11  23758970.000    23758971.555 4 124854163.898 7  97289008.95744
G14  23738157.164    23738161.297 3 124744876.939 6  97203785.11043
G15  22920068.000    22920069.965 5 120445783.651 7  93853853.70145
G18  21173105.891    21173108.031 5 111265424.321 8  86700323.66345
G19  22559866.234    22559866.734 5 118552904.602 7  92378879.73245
G22  20722748.969    20722749.586 6 108898768.088 8  84856190.01546
G24  22624775.875    22624781.121 5 118894043.548 7  92644713.38445
G27  24221845.180    24221850.309 3 127286644.590 6  99184414.44843
G28  21970955.352    21970956.965 5 115458096.953 7  89967398.42145
> 2015 07 19 00 10 15.0000000  0 10
G04  22990168.367    22990172.090 5 120814102.480 7  94140902.71445
G11  23752458.711    23752460.441 5 124819947.005 7  97262346.45545
G14  23727010.641    23727013.953 3 124686294.552 6  97158136.45543
G15  22927926.375    22927929.277 5 120487084.589 7  93886036.24145
G18  21179747.203    21179749.578 5 111300325.895 8  86727519.84345
G19  22564490.859    22564492.063 5 118577206.576 7  92397816.32345
G22  20720853.477    20720853.918 6 108888806.461 8  84848427.58146
G24  22618157.195    22618163.145 5 118859264.566 7  92617612.89245
G27  24231967.531    24231971.547 3 127339833.970 6  99225860.70243
G28  21971742.281    21971743.836 5 115462232.930 7  89970621.27745
> 2015 07 19 00 10 30.0000000  0 10
G04  22982992.078    22982996.094 5 120776389.807 7  94111516.18345
G11  23745964.398    23745966.715 4 124785821.511 7  97235755.13844
G14  23715871.500    23715875.281 3 124627765.951 6  97112529.99343
G15  22935803.820    22935806.957 5 120528481.190 7  93918293.29845
G18  21186413.867    21186416.301 5 111335359.762 8  86754819.03845
G19  22569142.609    22569143.227 5 118601649.769 7  92416862.95145
G22  20718987.453    20718987.719 6 108878999.232 8  84840785.56546
G24  22611561.797    22611567.922 5 118824606.445 7  92590606.57945
G27  24242100.477    24242105.254 3 127393083.426 6  99267353.76043
G28  21972565.742    21972567.473 4 115466560.362 7  89973993.29844
> 2015 07 19 00 10 45.0000000  0 10
G04  22975834.039    22975838.172 5 120738774.448 7  94082205.48545
G11  23739488.688    23739490.359 4 124751788.090 7  97209235.48544
G14  23704745.719    23704748.914 3 124569291.256 6  97066965.31543
G15  22943699.688    22943702.883 5 120569973.656 7  93950625.06545
G18  21193106.305    21193108.621 5 111370526.303 8  86782221.54945
G19  22573820.367    22573821.395 5 118626234.422 7  92436019.82245
G22  20717150.172    20717151.199 6 108869346.858 8  84833264.20446
G24  22604990.328    22604995.047 5 118790069.460 7  92563694.65945
G27  24252243.953    24252249.727 3 127446392.999 6  99308893.65843
G28  21973425.656    21973427.035 4 115471079.712 7  89977514.88344
> 2015 07 19 00 11 00.0000000  0 10
G04  22968694.930    22968698.535 5 120701256.200 7  94052970.46545
G11  23733029.453    23733032.004 4 124717846.940 7  97182787.84144
G14  23693627.500    23693631.574 3 124510871.007 6  97021443.12743
G15  22951614.570    22951616.887 5 120611561.452 7  93983031.11945
G18  21199823.406    21199825.840 5 111405824.964 8  86809727.00345
G19  22578525.875    22578527.020 5 118650959.754 7  92455286.28445
G22  20715342.914    20715343.941 6 108859849.292 8  84825863.55646
G24  22598441.008    22598446.371 5 118755653.799 7  92536877.24945
G27  24262400.938    24262404.895 3 127499762.023 6  99350479.87543
G28  21974322.008    21974324.090 5 115475790.592 7  89981185.71045
> 2015 07 19 00 11 15.0000000  0 10
G04  22961573.648    22961577.547 5 120663835.247 7  94023811.28145
G11  23726588.414    23726590.789 5 124683998.052 7  97156412.05245
G14  23682521.320    23682524.750 3 124452505.266 6  96975963.40643
G15  22959546.492    22959549.570 5 120653244.236 7  94015511.19145
G18  21206565.516    21206567.715 5 111441255.435 8  86837335.22145
G19  22583257.867    22583258.602 5 118675825.976 7  92474662.55445
G22  20713564.984    20713565.602 6 108850506.334 8  84818583.38946
G24  22591915.055    22591921.063 5 118721359.625 7  92510154.52145
G27  24272567.961    24272572.211 3 127553190.308 6  99392112.31343
G28  21975254.984    21975256.656 4 115480692.959 7  89985005.74644
> 2015 07 19 00 11 30.0000000  0 10
G04  22954471.617    22954475.164 5 120626512.220 7  93994728.37845
G11  23720164.961    23720167.395 5 124650242.103 7  97130108.74245
G14  23671424.523    23671428.422 3 124394194.408 6  96930526.29543
G15  22967496.156    22967498.531 5 120695021.884 7  94048065.18145
G18  21213332.609    21213334.164 5 111476817.731 8  86865046.09345
G19  22588016.516    22588016.898 5 118700832.974 7  92494148.58145
G22  20711817.094    20711817.594 6 108841318.330 8  84811423.97446
G24  22585411.547    22585417.496 5 118687187.565 7  92483526.92645
G27  24282746.578    24282750.477 3 127606677.583 6  99433790.67743
G28  21976224.758    21976226.195 4 115485786.973 7  89988975.11844
> 2015 07 19 00 11 45.0000000  0 10
G04  22947388.133    22947391.211 5 120589286.786 7  93965721.53245
G11  23713758.688    23713760.945 5 124616578.694 7  97103877.55145
G14  23660339.102    23660342.883 3 124335938.779 6  96885132.24043
G15  22975464.234    22975466.551 5 120736893.979 7  94080692.77645
G18  21220124.797    21220126.938 5 111512511.183 8  86892859.16945
G19  22592801.688    22592802.188 5 118725980.126 7  92513743.80145
G22  20710097.602    20710098.160 6 108832285.001 8  84804385.07646
G24  22578932.766    22578938.070 5 118653137.779 7  92456994.63445
G27  24292934.875    24292940.121 3 127660223.061 6  99475514.43143
G28  21977230.117    21977231.789 5 115491072.142 7  89993093.46645
> 2015 07 19 00 12 00.0000000  0 10
G04  22940322.680    22940326.520 5 120552159.286 7  93936790.97645
G11  23707370.813    23707373.070 4 124583008.192 7  97077718.74044
G14  23649264.383    23649267.461 3 124277738.738 6  96839781.62043
G15  22983450.492    22983453.160 5 120778860.236 7  94113393.76445
G18  21226941.875    21226943.664 5 111548335.846 8  86920774.55045
G19  22597613.891    22597614.039 5 118751267.296 7  92533448.11245
G22  20708408.422    20708409.039 6 108823406.496 8  84797466.78946
G24  22572476.414    22572482.129 5 118619210.569 7  92430557.85345
G27  24303135.625    24303140.520 3 127713826.570 6  99517283.39443
G28  21978272.578    21978273.957 4 115496548.570 7  89997360.79944
> 2015 07 19 00 12 15.0000000  0 10
G04  22933276.563    22933279.465 5 120515130.390 7  93907937.27145
G11  23701000.359    23701002.617 4 124549530.932 7  97051632.56544
G14  23638199.391    23638202.996 3 124219594.538 6  96794474.50043
G15  22991454.656    22991456.914 5 120820920.443 7  94146167.94545
G18  21233784.086    21233785.992 5 111584290.877 8  86948791.40645
G19  22602452.250    22602452.926 5 118776694.471 7  92553261.56545
G22  20706748.383    20706748.648 6 108814682.893 8  84790669.18746
G24  22566044.250    22566048.559 5 118585405.878 7  92404216.52545
G27  24313345.695    24313351.820 3 127767487.773 6  99559097.29543
G28  21979350.609    21979352.457 5 115502216.217 7  90001777.11645
> 2015 07 19 00 12 30.0000000  0 10
G04  22926248.633    22926251.945 5 120478199.979 7  93879160.38645
G11  23694647.180    23694649.496 5 124516146.986 7  97025619.11445
G14  23627146.422    23627149.266 3 124161506.910 7  96749211.66843
G15  22999475.211    22999478.465 5 120863073.986 7  94179014.83845
G18  21240650.844    21240652.398 5 111620376.066 8  86976909.76145
G19  22607317.094    22607317.887 5 118802261.074 7  92573183.68145
G22  20705117.648    20705118.031 6 108806113.946 8  84783992.04346
G24  22559634.578    22559639.824 5 118551723.829 7  92377970.78945
G27  24323569.289    24323573.656 3 127821206.049 6  99600955.67143
G28  21980465.813    21980467.602 5 115508074.883 8  90006342.28645
> 2015 07 19 00 12 45.0000000  0 10
G04  22919239.945    22919243.727 5 120441368.376 7  93850460.46645
G11  23688312.266    23688314.699 5 124482856.727 7  96999678.60545
G14  23616102.094    23616105.699 3 124103475.928 7  96703992.98643
G15  23007515.102    23007517.301 4 120905320.976 7  94211934.54044
G18  21247542.594    21247543.973 5 111656591.569 8  87005129.67145
G19  22612209.227    22612209.375 5 118827967.217 7  92593214.52545
G22  20703516.398    20703517.250 6 108797700.338 8  84777436.00546
G24  22553248.625    22553253.695 5 118518165.236 7  92351821.25545
G27  24333801.227    24333806.941 3 127874981.351 6  99642858.45943
G28  21981617.094    21981618.590 5 115514124.780 7  90011056.47845
> 2015 07 19 00 13 00.0000000  0 10
G04  22912250.039    22912253.234 5 120404636.401 7  93821838.20745
G11  23681995.531    23681997.145 4 124449660.675 7  96973811.55644
G14  23605070.320    23605074.043 3 124045501.755 7  96658818.42443
G15  23015572.688    23015574.184 5 120947661.162 7  94244926.82245
G18  21254458.898    21254460.746 5 111692937.159 8  87033450.98245
G19  22617126.977    22617128.004 5 118853812.866 7  92613354.06845
G22  20701945.117    20701945.324 6 108789442.152 8  84771001.10646
G24  22546886.250    22546891.555 5 118484730.524 7  92325768.22645
G27  24344044.445    24344050.980 3 127928813.541 6  99684805.61643
G28  21982804.703    21982805.789 5 115520365.864 8  90015919.65945
> 2015 07 19 00 13 15.0000000  0 10
G04  22905279.000    22905282.547 5 120368003.928 7  93793293.45445
G11  23675696.281    23675698.305 4 124416558.738 7  96948017.77044
G14  23594049.477    23594052.672 3 123987584.786 7  96613688.35743
G15  23023647.148    23023649.055 5 120990094.348 7  94277991.61345
G18  21261399.422    21261401.563 5 111729412.306 8  87061873.14245
G19  22622071.805    22622072.305 5 118879797.502 7  92633601.88145
G22  20700403.172    20700403.379 6 108781339.399 8  84764687.32946
G24  22540547.227    22540552.473 5 118451419.726 7  92299811.72945
G27  24354300.852    24354305.805 2 127982702.098 6  99726796.69342
G28  21984029.000    21984030.438 5 115526797.957 8  90020931.69545
> 2015 07 19 00 13 30.0000000  0 10
G04  22898327.117    22898330.371 5 120331470.967 7  93764826.24245
G11  23669415.250    23669417.918 4 124383551.111 7  96922297.54944
G14  23583038.820    23583042.543 3 123929725.368 6  96568603.18443
G15  23031739.273    23031742.000 5 121032619.945 7  94311128.46945
G18  21268365.555    21268367.109 5 111766016.500 8  87090395.89345
G19  22627042.633    22627043.543 5 118905920.772 7  92653957.71945
G22  20698890.602    20698891.336 6 108773391.656 8  84758494.32046
G24  22534231.594    22534237.660 5 118418232.853 7  92273951.81845
G27  24364565.039    24364570.285 3 128036646.373 5  99768831.17343
G28  21985288.680    21985290.469 5 115533420.859 8  90026092.41545
> 2015 07 19 00 13 45.0000000  0 10
G04  22891394.164    22891397.711 5 120295037.872 7  93736436.81345
G11  23663152.422    23663154.211 5 124350638.145 7  96896651.08945
G14  23572039.719    23572042.797 3 123871923.772 6  96523563.04643
G15  23039848.797    23039851.875 5 121075237.788 7  94344337.19745
G18  21275355.258    21275357.047 5 111802749.681 8  87119019.15745
G19  22632040.461    22632041.020 5 118932182.626 7  92674421.54345
G22  20697408.055    20697408.145 6 108765599.351 8  84752422.43146
G24  22527939.898    22527945.789 5 118385170.494 7  92248188.94645
G27  24374842.070    24374845.910 3 128090646.228 6  99810908.97243
G28  21986585.664    21986587.453 5 115540234.618 7  90031401.81445
> 2015 07 19 00 14 00.0000000  0 10
G04  22884480.172    22884483.777 5 120258705.116 7  93708125.61345
G11  23656907.422    23656909.504 5 124317819.994 7  96871078.49545
G14  23561050.445    23561054.402 3 123814180.378 6  96478568.21643
G15  23047977.344    23047979.016 5 121117947.615 7  94377617.57045
G18  21282369.664    21282371.219 5 111839611.596 8  87147742.72245
G19  22637064.273    22637064.891 5 118958582.911 7  92694993.23345
G22  20695954.594    20695954.918 7 108757962.506 8  84746471.71247
G24  22521672.477    22521678.133 5 118352232.860 7  92222523.26345
G27  24385128.086    24385132.512 2 128144701.276 6  99853029.72442
G28  21987918.859    21987919.945 5 115547239.251 7  90036859.93445
> 2015 07 19 00 14 15.0000000  0 10
G04  22877585.297    22877588.902 5 120222473.040 7  93679892.95445
G11  23650679.758    23650682.543 5 124285097.135 7  96845580.20045
G14  23550074.570    23550078.059 3 123756495.563 7  96433618.98843
G15  23056121.750    23056124.125 5 121160749.144 7  94410969.40445
G18  21289408.594    21289410.266 5 111876602.051 8  87176566.47045
G19  22642114.281    22642114.430 6 118985121.461 7  92715672.73046
G22  20694530.828    20694531.035 6 108750481.253 8  84740642.17446
G24  22515428.773    22515434.020 5 118319420.097 7  92196954.88945
G27  24395426.469    24395429.313 3 128198811.270 6  99895193.32343
G28  21989287.695    21989289.836 5 115554434.627 7  90042466.67745
> 2015 07 19 00 14 30.0000000  0 10
G04  22870709.867    22870713.590 5 120186341.620 7  93651738.64245
G11  23644471.188    23644472.918 5 124252469.320 7  96820155.90745
G14  23539109.383    23539112.051 3 123698869.659 7  96388715.70143
G15  23064283.750    23064286.418 5 121203642.007 7  94444392.38245
G18  21296472.336    21296474.008 5 111913720.443 8  87205489.87045
G19  22647190.578    22647190.785 5 119011797.683 7  92736459.41145
G22  20693136.695    20693137.137 6 108743155.550 8  84734933.84846
G24  22509207.727    22509213.500 5 118286732.584 7  92171484.09745
G27  24405732.844    24405737.152 3 128252975.661 6  99937399.32343
G28  21990693.523    21990694.961 5 115561820.460 7  90048221.82745
> 2015 07 19 00 14 45.0000000  0 10
G04  22863853.367    22863856.680 5 120150311.070 7  93623662.95345
G11  23638280.195    23638282.629 5 124219937.126 7  96794806.14145
G14  23528154.055    23528156.254 3 123641302.918 7  96343858.52643
G15  23072463.359    23072465.852 5 121246625.971 7  94477886.38545
G18  21303560.133    21303561.395 5 111950966.522 8  87234512.75045
G19  22652293.102    22652293.543 6 119038611.673 7  92757353.48246
G22  20691772.297    20691773.148 6 108735985.286 8  84729346.56346
G24  22503012.070    22503017.375 5 118254170.297 7  92146110.88045
G27  24416049.594    24416054.078 3 128307194.045 5  99979647.40043
G28  21992135.813    21992136.781 5 115569396.953 7  90054125.57945
> 2015 07 19 00 15 00.0000000  0 10
G04  22857016.438    22857019.281 5 120114381.951 7  93595666.35045
G11  23632107.703    23632110.313 5 124187500.545 7  96769530.85445
G14  23517211.078    23517213.570 3 123583795.967 6  96299047.99143
G15  23080660.219    23080663.531 4 121289700.829 7  94511451.21044
G18  21310672.094    21310674.176 5 111988340.378 7  87263635.23045
G19  22657421.992    22657422.258 5 119065563.096 7  92778354.62645
G22  20690437.719    20690438.277 6 108728970.847 8  84723880.77946
G24  22496838.977    22496845.277 5 118221733.936 7  92120835.80645
G27  24426377.680    24426382.633 3 128361466.250 5 100021937.38543
G28  21993613.453    21993614.949 4 115577163.895 7  90060177.75744
> 2015 07 19 00 15 15.0000000  0 10
G04  22850197.914    22850201.168 5 120078554.050 7  93567748.51845
G11  23625954.203    23625955.934 5 124155159.906 7  96744330.36445
G14  23506278.172    23506281.484 3 123526348.676 7  96254283.85943
G15  23088873.945    23088876.613 4 121332866.238 7  94545086.59944
G18  21317808.258    21317809.637 5 112025841.241 8  87292856.68445
G19  22662576.516    22662577.250 5 119092651.594 7  92799462.55445
G22  20689132.406    20689133.082 6 108722112.061 8  84718536.28346
G24  22490690.641    22490696.355 5 118189423.626 7  92095658.93345
G27  24436715.250    24436719.969 3 128415791.711 5 100064268.86743
G28  21995127.078    21995128.867 5 115585120.968 7  90066378.05945
> 2015 07 19 00 15 30.0000000  0 10
G04  22843399.875    22843402.953 5 120042827.742 7  93539909.88945
G11  23619818.023    23619820.105 4 124122915.155 7  96719204.55244
G14  23495357.969    23495361.398 3 123468961.606 7  96209566.74643
G15  23097105.813    23097107.895 5 121376121.868 7  94578792.26845
G18  21324968.211    21324970.469 5 112063468.982 7  87322176.99045
G19  22667757.086    22667758.465 5 119119877.032 8  92820677.22545
G22  20687856.641    20687856.906 6 108715408.806 8  84713312.93046
G24  22484566.445    22484571.809 5 118157239.457 7  92070580.36345
G27  24447062.734    24447068.215 3 128470170.100 5 100106641.64443
G28  21996677.617    21996679.055 5 115593268.232 7  90072726.57245
> 2015 07 19 00 15 45.0000000  0 11
G01  24449945.758                   128485336.07015
G04  22836620.875    22836624.305 5 120007203.924 7  93512151.12745
G11  23613700.820    23613701.965 5 124090767.045 7  96694154.04645
G14  23484449.297    23484451.789 3 123411635.201 7  96164896.80643
G15  23105354.070    23105357.383 4 121419467.644 7  94612568.19744
G18  21332153.180    21332154.793 5 112101223.529 7  87351596.10945
G19  22672964.484    22672964.633 5 119147239.448 8  92841998.56045
G22  20686611.094    20686611.770 6 108708861.797 8  84708211.38246
G24  22478465.813    22478471.469 5 118125181.891 7  92045600.43545
G27  24457421.609    24457426.504 3 128524601.436 6 100149055.59343
G28  21998263.906    21998266.105 5 115601605.969 7  90079223.51945
> 2015 07 19 00 16 00.0000000  0 11
G01  24439727.125                   128431638.099 5
G04  22829861.328    22829864.934 5 119971681.988 7  93484471.71245
G11  23607601.352    23607603.785 5 124058715.599 7  96669178.85045
G14  23473550.852    23473554.691 3 123354369.530 7  96120274.18843
G15  23113620.578    23113622.074 5 121462903.015 7  94646413.93545
G18  21339361.656    21339362.918 5 112139104.274 8  87381113.55945
G19  22678197.289    22678197.965 5 119174738.197 8  92863426.09545
G22  20685394.563    20685394.887 6 108702470.400 8  84703231.03346
G24  22472390.086    22472395.684 5 118093251.015 7  92020719.24645
G27  24467788.133    24467793.848 3 128579084.905 5 100191510.22243
G28  21999887.117    21999888.848 5 115610133.564 7  90085868.40045
> 2015 07 19 00 16 15.0000000  0 11
G01  24429518.766                   128377992.722 5
G04  22823120.484    22823124.148 5 119936262.790 7  93456872.41845
G11  23601520.758    23601522.664 5 124026761.018 7  96644279.15945
G14  23462666.734    23462669.109 3 123297165.385 7  96075699.70443
G15  23121902.813    23121904.602 5 121506427.737 7  94680329.31345
G18  21346594.211    21346596.352 5 112177110.953 7  87410729.16045
G19  22683455.813    22683456.078 5 119202373.207 8  92884959.80945
G22  20684208.117    20684208.969 6 108696234.858 8  84698372.13146
G24  22466338.078    22466343.441 5 118061447.096 7  91995936.98445
G27  24478165.078    24478171.789 2 128633620.242 5 100234005.25142
G28  22001545.828    22001547.148 5 115618851.028 7  90092661.22045
> 2015 07 19 00 16 30.0000000  0 11
G01  24419320.711                   128324400.671 5
G04  22816400.508    22816403.938 5 119900946.597 7  93429353.41445
G11  23595458.328    23595460.293 5 123994903.801 7  96619455.37945
G14  23451792.695    23451795.129 3 123240022.573 7  96031172.78443
G15  23130202.000    23130204.258 5 121550041.785 7  94714314.31145
G18  21353850.109    21353852.250 5 112215243.579 7  87440442.86845
G19  22688740.422    22688741.801 5 119230144.572 7  92906599.79845
G22  20683051.531    20683051.035 6 108690155.505 8  84693634.95646
G24  22460310.055    22460315.477 5 118029770.578 7  91971253.99245
G27  24488554.734    24488558.809 2 128688207.347 5 100276540.66542
G28  22003240.594    22003242.617 5 115627758.545 7  90099602.11545
> 2015 07 19 00 16 45.0000000  0 11
G01  24409131.664                   128270861.714 5
G04  22809699.617    22809702.871 5 119865733.389 7  93401914.61745
G11  23589414.477    23589416.852 5 123963143.976 7  96594707.50945
G14  23440930.203    23440932.344 3 123182941.902 7  95986694.39943
G15  23138517.594    23138520.555 5 121593744.790 7  94748368.62045
G18  21361130.750    21361132.363 5 112253501.856 7  87470254.49745
G19  22694051.195    22694051.813 5 119258051.845 8  92928345.69645
G22  20681924.148    20681923.945 6 108684232.464 8  84689019.61046
G24  22454306.477    22454311.605 5 117998221.836 7  91946670.56545
G27  24498950.656    24498956.547 2 128742845.724 5 100319115.98642
G28  22004972.281    22004973.836 5 115636855.902 7  90106690.92845
> 2015 07 19 00 17 00.0000000  0 11
G01  24398954.195                   128217376.333 5
G04  22803018.430    22803021.684 5 119830623.292 7  93374556.15945
G11  23583389.625    23583391.531 5 123931481.613 7  96570035.57145
G14  23430080.445    23430083.172 3 123125923.488 7  95942264.56143
G15  23146851.023    23146853.281 5 121637536.232 7  94782491.83645
G18  21368434.570    21368436.359 5 112291885.098 7  87500163.48645
G19  22699387.336    22699388.480 5 119286094.522 7  92950197.10845
G22  20680826.781    20680826.871 6 108678465.352 8  84684525.75846
G24  22448327.445    22448332.809 5 117966800.842 7  91922186.66345
G27  24509357.281    24509362.645 2 128797534.871 5 100361730.86442
G28  22006739.609    22006741.398 5 115646142.969 7  90113927.61045
> 2015 07 19 00 17 15.0000000  0 11
G01  24388785.844                   128163944.898 5
G04  22796356.680    22796359.523 5 119795616.999 7  93347278.61645
G11  23577382.641    23577385.133 5 123899916.944 7  96545439.76645
G14  23419241.578    23419245.008 3 123068967.493 7  95897883.28343
G15  23155201.695    23155203.836 5 121681416.085 7  94816683.93945
G18  21375762.406    21375764.254 5 112330393.267 7  87530169.84045
G19  22704749.781    22704750.926 5 119314272.664 7  92972154.07445
G22  20679758.602    20679759.219 6 108672854.324 8  84680153.44646
G24  22442372.102    22442377.699 5 117935508.060 7  91897802.69045
G27  24519773.969    24519780.328 3 128852274.567 5 100404385.21343
G28  22008542.875    22008543.961 5 115655619.642 7  90121312.06045
> 2015 07 19 00 17 30.0000000  0 11
G01  24378629.070                   128110567.509 5
G04  22789714.938    22789717.957 5 119760714.323 7  93320081.82945
G11  23571395.031    23571397.055 5 123868450.236 7  96520920.29245
G14  23408414.633    23408417.418 3 123012074.486 7  95853551.12943
G15  23163568.180    23163571.199 5 121725383.974 7  94850944.63245
G18  21383113.977    21383115.766 5 112369025.960 7  87560273.23145
G19  22710137.375    22710138.695 5 119342586.074 7  92994216.50245
G22  20678720.578    20678721.664 6 108667399.376 8  84675902.77646
G24  22436441.672    22436447.797 5 117904343.507 7  91873518.61945
G27  24530201.414    24530205.723 2 128907064.307 6 100447078.41642
G28  22010382.398    22010384.012 5 115665285.624 7  90128844.03245
> 2015 07 19 00 17 45.0000000  0 11
G01  24368481.914                   128057244.475 5
G04  22783093.102    22783096.121 5 119725915.734 7  93292966.12045
G11  23565425.984    23565427.188 5 123837081.812 7  96496477.46045
G14  23397600.844    23397603.570 3 122955244.694 7  95809268.23343
G15  23171951.414    23171954.023 4 121769439.540 7  94885273.63944
G18  21390489.453    21390490.715 5 112407782.849 8  87590473.37845
G19  22715551.180    22715552.090 5 119371034.050 7  93016383.67345
G22  20677712.359    20677712.684 6 108662100.741 8  84671773.93146
G24  22430535.516    22430541.992 5 117873307.422 7  91849334.66745
G27  24540638.203    24540642.160 2 128961903.870 5 100489810.54842
G28  22012257.406    22012259.664 4 115675140.960 7  90136523.58544
> 2015 07 19 00 18 00.0000000  0 11
G01  24358345.164                   128003976.849 5
G04  22776491.125    22776494.086 5 119691221.656 8  93265931.80845
G11  23559475.180    23559477.027 5 123805811.861 7  96472111.26045
G14  23386798.844    23386801.746 3 122898478.387 7  95765034.68043
G15  23180352.297    23180354.438 5 121813582.774 7  94919670.94945
G18  21397888.305    21397890.563 5 112446664.062 7  87620770.44345
G19  22720990.141    22720990.875 5 119399617.046 8  93038656.12645
G22  20676733.906    20676734.699 6 108656958.717 8  84667767.16646
G24  22424654.383    22424660.391 5 117842400.354 7  91825251.23845
G27  24551082.555    24551086.805 2 129016793.096 6 100532581.34142
G28  22014169.094    22014170.414 5 115685185.899 7  90144350.88645
> 2015 07 19 00 18 15.0000000  0 11
G01  24348219.867                   127950764.111 5
G04  22769908.711    22769911.906 5 119656631.939 7  93238978.79145
G11  23553543.414    23553545.203 5 123774640.459 7  96447821.87545
G14  23376007.930    23376011.887 3 122841775.883 7  95720850.82743
G15  23188768.641    23188770.547 5 121857812.948 7  94954136.00545
G18  21405310.898    21405312.043 5 112485668.752 7  87651163.68045
G19  22726454.984    22726456.129 5 119428334.520 7  93061033.44545
G22  20675785.070    20675785.922 6 108651972.666 8  84663881.83846
G24  22418797.367    22418803.141 5 117811622.418 7  91801268.45145
G27  24561538.109    24561540.309 3 129071731.284 6 100575390.32243
G28  22016115.750    22016118.477 5 115695419.887 7  90152325.47545
> 2015 07 19 00 18 30.0000000  0 11
G01  24338103.063                   127897606.539 5
G04  22763346.297    22763350.020 5 119622146.972 8  93212107.40745
G11  23547630.250    23547632.039 5 123743567.547 7  96423609.14245
G14  23365230.031    23365233.754 3 122785137.521 7  95676716.99443
G15  23197201.063    23197203.848 5 121902129.801 7  94988668.60045
G18  21412756.805    21412758.359 5 112524796.629 7  87681652.87745
G19  22731945.383    22731946.703 5 119457185.603 7  93083514.71245
G22  20674866.281    20674867.543 6 108647142.534 8  84660117.88246
G24  22412965.289    22412971.004 5 117780973.667 7  91777386.30145
G27  24572001.672    24572004.105 2 129126718.000 6 100618237.08842
G28  22018099.297    22018101.145 4 115705842.614 7  90160447.10144
> 2015 07 19 00 18 45.0000000  0 11
G01  24327999.484                   127844505.083 5
G04  22756804.352    22756807.195 5 119587767.258 8  93185318.00745
G11  23541737.102    23541738.363 5 123712594.317 7  96399474.22245
G14  23354464.188    23354468.027 3 122728564.125 7  95632633.80343
G15  23205651.508    23205653.941 4 121946533.581 7  95023268.92344
G18  21420226.258    21420227.461 5 112564047.864 7  87712238.22545
G19  22737460.992    22737461.902 5 119486171.124 7  93106100.86445
G22  20673977.016    20673977.691 6 108642469.677 8  84656476.76046
G24  22407157.641    22407162.828 5 117750454.967 7  91753605.50045
G27  24582474.273    24582477.059 3 129181753.412 5 100661121.80643
G28  22020119.148    22020120.234 5 115716454.509 7  90168716.12645
> 2015 07 19 00 19 00.0000000  0 11
G01  24317904.273                   127791459.709 5
G04  22750282.133    22750285.504 5 119553492.885 8  93158610.69045
G11  23535861.313    23535862.867 5 123681720.343 7  96375416.65445
G14  23343711.516    23343715.121 3 122672055.595 7  95588601.14243
G15  23214117.789    23214120.398 4 121991023.649 7  95057936.47944
G18  21427718.906    21427719.816 5 112603421.905 7  87742919.24645
G19  22743002.172    22743003.258 5 119515290.224 7  93128790.93045
G22  20673117.484    20673118.453 6 108637953.293 8  84652957.61746
G24  22401374.844    22401380.500 5 117720066.098 7  91729925.86745
G27  24592957.250    24592959.508 3 129236836.728 6 100704043.84443
G28  22022174.125    22022176.266 5 115727255.258 7  90177132.29545
