     3.02           OBSERVATION DATA    G (GPS)             RINEX VERSION / TYPE
teqc  2019Feb12     Unknown             20211202 222832 UTC PGM / RUN BY / DATE
Linux 2.4.21-27.ELsmp|Opteron|gcc -static|Linux 64|=+       COMMENT
     2.11           OBSERVATION DATA    M (MIXED)           COMMENT
NetR9 5.45          Receiver Operator   20210115 000001 UTC COMMENT
L2C CARRIER PHASE MEASUREMENTS: PHASE SHIFTS REMOVED        COMMENT
L2C PHASE MATCHES L2 P PHASE                                COMMENT
GLONASS C/A & P PHASE MATCH: PHASE SHIFTS REMOVED           COMMENT
Forced Modulo Decimation to 30 seconds                      COMMENT
teqc edited: all GLONASS satellites excluded                COMMENT
teqc edited: all Galileo satellites excluded                COMMENT
ZIMM                                                        MARKER NAME
GEODETIC                                                    MARKER TYPE
TRIMBLE NETR9       SWISSTOPO                               OBSERVER / AGENCY
5429R49141          TRIMBLE NETR9       5.45                REC # / TYPE / VERS
99390               TRM29659.00     NONE                    ANT # / TYPE
  4331297.3480   567555.6390  4633133.7280                  APPROX POSITION XYZ
        0.0000        0.0000        0.0000                  ANTENNA: DELTA H/E/N
G    7 C1C C2C C2W C5X L1C L2W L5X                          SYS / # / OBS TYPES
    30.000                                                  INTERVAL
  2021    01    15    00    00   00.0000000     GPS         TIME OF FIRST OBS
  2021    01    15    23    59   30.0000000     GPS         TIME OF LAST OBS
    31                                                      # OF SATELLITES
   G01   804   804   804   787   803   804   787            PRN / # OF OBS
   G02  1072        1072        1071  1071                  PRN / # OF OBS
   G03   821   821   820   771   816   821   771            PRN / # OF OBS
   G04   888   888   886   659   879   888   659            PRN / # OF OBS
   G05   985   985   985         982   985                  PRN / # OF OBS
   G06  1018  1018  1018   821  1016  1018   821            PRN / # OF OBS
   G07   965   964   964         964   965                  PRN / # OF OBS
   G08   859   859   856   694   851   859   694            PRN / # OF OBS
   G09   779   778   778   761   774   779   761            PRN / # OF OBS
   G10   994   992   994   866   992   994   866            PRN / # OF OBS
   G12   799   798   798         797   799                  PRN / # OF OBS
   G13   792         792         792   792                  PRN / # OF OBS
   G14  1009  1006   988   876  1005  1006   876            PRN / # OF OBS
   G15   902   893   901         892   902                  PRN / # OF OBS
   G16   948         917         936   911                  PRN / # OF OBS
   G17  1066  1065  1065        1063  1065                  PRN / # OF OBS
   G18   939   938   928   827   932   938   827            PRN / # OF OBS
   G19  1036        1033        1032  1029                  PRN / # OF OBS
   G20  1027         997        1014   994                  PRN / # OF OBS
   G21   853         853         852   852                  PRN / # OF OBS
   G22   828         827         827   826                  PRN / # OF OBS
   G23  1033  1032  1023   929  1027  1032   929            PRN / # OF OBS
   G24   803   803   803   753   803   803   753            PRN / # OF OBS
   G25   817   815   816   788   816   816   788            PRN / # OF OBS
   G26   851   845   842   683   848   850   683            PRN / # OF OBS
   G27   796   796   796   747   795   796   747            PRN / # OF OBS
   G28  1000         990         996   987                  PRN / # OF OBS
   G29   778   778   777         775   778                  PRN / # OF OBS
   G30   756   756   756   685   747   756   685            PRN / # OF OBS
   G31  1012  1012  1012        1012  1012                  PRN / # OF OBS
   G32  1060  1060  1060   857  1059  1060   857            PRN / # OF OBS
                                                            END OF HEADER
> 2021 01 15 00 00 00.0000000  0  9
G01  23782692.898 6  23782700.105    23782699.996 3  23782695.898 5 124978904.891 6  97386182.26743  93328420.623 5
G08  20835150.922 8  20835157.566    20835156.387 7  20835153.113 6 109489467.057 8  85316498.11947  81761632.992 6
G10  21048518.117 8  21048523.906    21048524.000 9  21048519.570 6 110610715.066 8  86190207.00749  82598974.035 6
G16  23466055.477 7                  23466058.520 4                 123314804.874 7  96089580.38644
G20  22764951.109 6                  22764953.520 4                 119630629.182 6  93218704.58544
G21  22247745.086 7                  22247747.387 6                 116912708.155 7  91100817.45946
G23  22700396.289 7  22700400.578    22700400.012 5  22700401.668 6 119291398.212 7  92954361.43545  89081245.884 6
G27  20388972.617 8  20388978.531    20388978.059 9  20388975.012 7 107144784.898 8  83489473.86549  80010730.831 7
G32  24340504.531 6  24340510.773    24340509.793 5                 127910218.464 6  99670333.08645
> 2021 01 15 00 00 30.0000000  0 10
G01  23764118.031 6  23764125.496    23764125.402 3  23764120.449 5 124881290.011 6  97310118.66643  93255526.354 5
G08  20826265.563 8  20826272.117    20826271.035 7  20826268.148 7 109442774.632 8  85280114.41747  81726765.281 7
G10  21053719.445 8  21053725.070    21053725.137 9  21053720.742 6 110638048.052 8  86211505.44549  82619385.024 6
G16  23486823.164 7                  23486825.906 4                 123423939.891 7  96174620.65844
G20  22781483.031 6                  22781485.973 4                 119717505.643 6  93286400.54044
G21  22237007.406 7                  22237009.293 5                 116856280.867 7  91056848.14145
G22  25265346.188 5                  25265348.844 2                 132770295.40115 103457378.92942
G23  22716491.461 7  22716496.188    22716495.297 5  22716496.840 6 119375979.478 7  93020268.91245  89144407.214 6
G27  20394987.086 8  20394993.293    20394992.785 9  20394989.844 7 107176391.953 8  83514102.72749  80034333.520 7
G32  24323565.203 6  24323572.004    24323571.809 5                 127821203.314 6  99600970.63245
> 2021 01 15 00 01 00.0000000  0 10
G01  23745566.523 6  23745573.586    23745573.469 3  23745569.301 5 124783803.714 6  97234155.37543  93182728.292 5
G08  20817452.336 8  20817459.215    20817458.195 7  20817455.051 7 109396462.195 8  85244026.79647  81692181.313 7
G10  21059021.625 8  21059027.727    21059027.387 9  21059023.297 6 110665912.986 8  86233218.38349  82640193.269 6
G16  23507620.922 7                  23507624.652 4                 123533236.316 7  96259786.68644
G20  22798070.023 6                  22798072.805 4                 119804669.756 6  93354320.60744
G21  22226309.703 7                  22226312.066 6                 116800066.091 7  91013044.43646
G22  25243997.070 6                  25243999.117 3                 132658100.338 6 103369954.12143
G23  22732651.141 7  22732655.637    22732655.156 5  22732655.945 5 119460898.338 7  93086439.45245  89207820.652 5
G27  20401087.688 8  20401093.875    20401093.230 9  20401089.887 7 107208450.775 8  83539083.61649  80058273.531 7
G32  24306651.469 6  24306658.738    24306658.445 6                 127732323.720 6  99531713.81346
> 2021 01 15 00 01 30.0000000  0 10
G01  23727039.914 6  23727047.816    23727047.223 3  23727043.270 5 124686447.151 6  97158293.15943  93110026.995 5
G08  20808712.078 8  20808718.977    20808717.879 7  20808714.520 7 109350531.482 8  85208236.63247  81657882.393 7
G10  21064425.359 8  21064431.320    21064430.887 9  21064426.809 6 110694308.799 8  86255344.99249  82661397.923 6
G16  23528450.203 7                  23528453.063 4                 123642690.943 7  96345076.00644
G20  22814710.695 6                  22814713.680 4                 119892118.973 6  93422462.84644
G21  22215653.094 7                  22215655.422 5                 116744064.419 7  90969406.79545
G22  25222656.844 5                  25222660.344 3                 132545960.516 5 103282572.65243
G23  22748874.367 7  22748878.777    22748878.180 5  22748879.227 5 119546152.474 7  93152871.23345  89271484.454 5
G27  20407274.516 8  20407280.332    20407279.918 9  20407276.699 7 107240961.475 8  83564416.62449  80082550.989 7
G32  24289764.836 6  24289771.508    24289770.625 5                 127643582.927 6  99462565.15345
> 2021 01 15 00 02 00.0000000  0 10
G01  23708537.563 6  23708545.344    23708545.297 3  23708540.625 5 124589220.742 6  97082532.32643  93037422.871 5
G08  20800044.625 8  20800051.344    20800050.363 7  20800047.164 7 109304983.591 8  85172744.76047  81623869.341 7
G10  21069929.375 8  21069935.473    21069935.246 9  21069931.090 6 110723233.711 8  86277883.88749  82682997.674 6
G16  23549308.320 7                  23549311.387 4                 123752301.521 7  96430486.82744
G20  22831405.477 6                  22831408.223 4                 119979850.527 6  93490825.09644
G21  22205036.641 7                  22205039.340 5                 116688275.331 7  90925934.78145
G22  25201329.656 6                  25201329.172 2                 132433878.361 6 103195235.61242
G23  22765160.594 7  22765165.328    22765164.691 5  22765166.309 5 119631738.891 7  93219561.94645  89335396.402 5
G27  20413546.680 8  20413552.789    20413552.254 9  20413549.184 7 107273923.440 8  83590101.26849  80107165.423 7
G32  24272905.008 6  24272911.234    24272910.277 5                 127554983.386 6  99393526.55645
> 2021 01 15 00 02 30.0000000  0  9
G01  23690061.734 6  23690070.234    23690069.824 4  23690064.781 5 124492126.701 6  97006874.66344  92964917.55715
G08  20791450.742 8  20791457.668    20791456.570 7  20791453.305 7 109259822.096 8  85137553.98847  81590144.881 7
G10  21075534.211 8  21075540.355    21075540.258 9  21075535.883 6 110752687.888 8  86300835.20049  82704992.696 6
G16  23570195.813 7                  23570198.703 4                 123862066.268 7  96516017.80444
G20  22848153.672 6                  22848157.254 4                 120067863.486 6  93559406.60644
G21  22194460.578 7                  22194463.762 6                 116632700.184 7  90882629.48246
G23  22781510.305 7  22781514.625    22781513.773 5  22781516.203 6 119717656.502 7  93286510.73845  89399555.632 6
G27  20419905.438 8  20419911.512    20419910.941 9  20419907.891 7 107307338.050 8  83616138.62049  80132117.895 7
G32  24256073.148 6  24256079.473    24256078.773 6                 127466529.693 6  99324601.59346
> 2021 01 15 00 03 00.0000000  0 10
G01  23671611.000 6  23671617.879    23671617.242 3  23671613.137 5 124395163.507 6  96931318.95243  92892510.054 5
G08  20782930.305 8  20782936.820    20782935.797 7  20782932.301 7 109215045.643 8  85102663.25447  81556707.898 7
G10  21081239.148 8  21081245.398    21081245.090 9  21081241.000 6 110782667.583 8  86324195.99449  82727380.125 6
G16  23591111.719 7                  23591115.098 4                 123971979.762 7  96601664.65844
G20  22864955.234 7                  22864957.898 4                 120156153.498 7  93628204.02544
G21  22183925.453 7                  22183928.824 6                 116577336.987 7  90839489.35946
G22  25158707.680 6                  25158708.801 4                 132209896.83216 103020706.25744
G23  22797922.336 7  22797926.805    22797925.934 5  22797927.188 5 119803900.386 7  93353713.76345  89463958.516 5
G27  20426349.258 8  20426355.719    20426355.156 9  20426352.293 7 107341202.748 8  83642526.68449  80157406.454 7
G32  24239268.422 6  24239275.688    24239274.984 6                 127378222.481 6  99255790.77946
> 2021 01 15 00 03 30.0000000  0 10
G01  23653183.906 6  23653191.988    23653191.277 3  23653187.023 5 124298334.086 6  96855867.47143  92820202.334 5
G08  20774483.461 8  20774490.156    20774489.141 7  20774485.605 6 109170658.279 8  85068075.69647  81523561.493 6
G10  21087044.383 8  21087050.602    21087050.363 9  21087046.453 6 110813173.572 8  86347966.89749  82750160.565 6
G16  23612055.445 7                  23612058.508 4                 124082041.599 7  96687427.12644
G20  22881808.500 6                  22881811.309 4                 120244720.206 6  93697217.04944
G21  22173430.898 7                  22173433.934 6                 116522187.703 7  90796515.89646
G22  25137410.727 4                                                 132097998.715 4
G23  22814395.938 7  22814400.199    22814399.797 5  22814400.523 5 119890470.143 7  93421170.71545  89528604.760 5
G27  20432879.648 8  20432886.020    20432885.457 9  20432882.477 7 107375519.526 8  83669267.02549  80183032.622 7
G32  24222492.602 6  24222500.063    24222499.488 5                 127290066.906 6  99187098.12045
> 2021 01 15 00 04 00.0000000  0 10
G01  23634783.883 6  23634791.121    23634791.020 3  23634787.559 5 124201638.300 6  96780520.12843  92747994.496 5
G08  20766110.969 8  20766117.891    20766116.789 7  20766113.531 7 109126661.070 8  85033792.15547  81490706.442 7
G10  21092949.461 8  21092955.449    21092955.148 9  21092950.863 6 110844203.491 8  86372146.05249  82773332.260 6
G16  23633026.891 6                  23633030.574 4                 124192248.556 6  96773302.67744
G20  22898713.539 6                  22898716.789 4                 120333560.093 6  93766442.92244
G21  22162976.625 7                  22162979.824 6                 116467251.268 7  90753708.29446
G22  25116132.758 6                  25116134.867 4                 131986165.90216 102846373.36744
G23  22830930.898 7  22830934.938    22830934.305 5  22830936.133 5 119977362.256 7  93488878.83345  89593491.730 5
G27  20439495.898 8  20439502.043    20439501.625 9  20439498.531 7 107410287.253 8  83696358.74749  80208995.510 7
G32  24205746.414 6  24205753.242    24205752.441 5                 127202064.929 6  99118525.19245
> 2021 01 15 00 04 30.0000000  0 10
G01  23616408.789 6  23616416.051    23616415.621 3  23616411.363 5 124105076.856 6  96705277.48443  92675886.940 5
G08  20757813.117 8  20757819.859    20757818.820 7  20757815.703 6 109083055.144 8  84999813.51547  81458143.584 6
G10  21098953.680 8  21098959.543    21098959.547 9  21098954.965 6 110875755.854 8  86396732.30949  82796894.098 6
G16  23654026.492 6                  23654029.410 4                 124302597.622 6  96859288.95744
G20  22915671.078 6                  22915673.918 4                 120422670.290 6  93835879.43144
G21  22152563.813 7                  22152566.207 6                 116412527.899 7  90711066.72246
G22  25094864.078 6                  25094866.453 3                 131874400.070 6 102759283.13843
G23  22847526.656 7  22847530.969    22847530.203 5  22847532.250 5 120064574.053 7  93556836.08245  89658617.414 5
G27  20446197.719 8  20446204.039    20446203.375 9  20446200.453 7 107445505.614 8  83723801.62249  80235294.942 7
G32  24189030.469 6  24189037.441    24189035.766 6                 127114219.629 6  99050074.28846
> 2021 01 15 00 05 00.0000000  0 10
G01  23598059.133 6  23598066.418    23598066.355 3  23598063.047 5 124008650.707 6  96630140.22543  92603880.390 5
G08  20749589.969 8  20749596.449    20749595.668 7  20749592.672 6 109039842.374 8  84966141.22847  81425874.295 6
G10  21105056.938 8  21105063.102    21105063.012 9  21105058.684 6 110907829.351 8  86421724.64349  82820845.084 6
G16  23675051.453 6                  23675054.766 4                 124413086.313 6  96945384.02744
G20  22932680.258 6                  22932682.711 4                 120512049.734 6  93905525.74744
G21  22142190.383 7                  22142193.484 6                 116358017.631 7  90668591.20646
G22  25073608.781 6                  25073609.492 2                 131762703.03616 102672246.39242
G23  22864183.055 7  22864187.539    22864186.813 5  22864187.934 5 120152103.144 7  93625040.56645  89723980.058 5
G27  20452985.414 8  20452991.438    20452990.922 9  20452987.941 7 107481174.535 8  83751595.58049  80261930.823 7
G32  24172345.109 6  24172351.059    24172350.391 6                 127026534.040 6  98981747.84746
> 2021 01 15 00 05 30.0000000  0 10
G01  23579736.117 6  23579743.617    23579742.965 3  23579739.844 5 123912360.615 6  96555108.98643  92531975.488 5
G08  20741441.930 8  20741448.617    20741447.637 7  20741444.633 6 108997024.404 8  84932776.57147  81393899.843 6
G10  21111259.422 8  21111265.188    21111264.969 9  21111260.930 6 110940422.580 8  86447121.96449  82845184.178 6
G16  23696102.117 6                  23696106.027 4                 124523711.277 6  97031585.30544
G20  22949738.883 6                  22949741.523 4                 120601695.471 6  93975379.55044
G21  22131857.750 7                  22131860.945 6                 116303720.545 7  90626281.79046
G22  25052367.719 6                  25052369.117 4                 131651077.349 6 102585265.37444
G23  22880898.594 7  22880903.586    22880903.328 5  22880904.199 5 120239946.932 7  93693490.26045  89789577.670 5
G27  20459858.641 8  20459864.797    20459864.109 9  20459861.168 7 107517293.825 8  83779740.48049  80288903.010 7
G32  24155688.969 6  24155696.445    24155695.637 6                 126939011.183 6  98913548.23946
> 2021 01 15 00 06 00.0000000  0 10
G01  23561438.297 6  23561446.355    23561446.473 4  23561442.328 5 123816207.121 6  96480184.19044  92460172.553 5
G08  20733369.313 8  20733376.004    20733375.078 7  20733372.180 6 108954602.393 8  84899720.46647  81362221.068 6
G10  21117560.164 8  21117566.141    21117565.797 9  21117561.480 6 110973533.771 8  86472922.89349  82869910.069 6
G16  23717178.891 6                  23717182.617 4                 124634469.905 6  97117890.70944
G20  22966847.508 6                  22966850.820 4                 120691604.945 6  94045438.85744
G21  22121566.539 7                  22121568.945 6                 116249636.499 7  90584138.38346
G22  25031138.094 5                  25031140.289 3                 131539524.004 5 102498340.77643
G23  22897674.633 7  22897679.098    22897677.957 5  22897679.641 5 120328102.594 7  93762182.97445  89855408.193 5
G27  20466817.297 8  20466823.770    20466823.086 9  20466820.000 7 107553862.966 8  83808235.91349  80316211.133 7
G32  24139065.578 6  24139073.102    24139071.883 6                 126851653.779 6  98845477.55646
> 2021 01 15 00 06 30.0000000  0 10
G01  23543167.297 6  23543174.770    23543174.523 3  23543170.898 5 123720192.018 6  96405367.26543  92388473.041 5
G08  20725372.555 8  20725379.371    20725378.180 7  20725375.355 7 108912579.027 8  84866974.97847  81330839.980 7
G10  21123959.266 8  21123965.203    21123965.000 9  21123960.996 6 111007162.470 8  86499127.06149  82895022.390 6
G16  23738281.625 6                  23738284.691 4                 124745360.472 6  97204298.92644
G20  22984007.078 6                  22984010.008 4                 120781776.776 6  94115702.62744
G21  22111315.148 7                  22111317.664 6                 116195766.594 7  90542161.82446
G22  25009925.945 6                  25009926.762 3                 131428046.33216 102411475.11043
G23  22914509.500 7  22914513.484    22914513.066 5  22914514.672 5 120416568.555 7  93831117.48545  89921470.398 5
G27  20473862.055 8  20473868.285    20473867.852 9  20473864.398 7 107590882.686 8  83837082.43749  80343855.725 7
G32  24122474.844 6  24122481.379    24122480.203 6                 126764465.907 6  98777538.96146
> 2021 01 15 00 07 00.0000000  0 10
G01  23524922.906 6  23524929.688    23524929.758 3  23524925.762 5 123624314.922 6  96330657.84443  92316876.480 5
G08  20717451.813 8  20717458.699    20717457.367 7  20717454.254 7 108870954.931 8  84834540.61947  81299757.050 7
G10  21130456.414 8  21130462.668    21130462.402 9  21130458.199 6 111041306.019 8  86525732.42749  82920519.214 6
G16  23759407.000 6                  23759410.332 4                 124856379.264 6  97290807.06544
G20  23001214.875 6                  23001218.109 4                 120872207.501 6  94186168.13844
G21  22101104.648 7                  22101106.754 6                 116142109.238 7  90500350.90946
G22  24988726.117 5                  24988727.461 3                 131316645.218 5 102324668.87843
G23  22931401.469 6  22931405.977    22931405.746 5  22931406.902 5 120505341.125 6  93900290.92045  89987761.605 5
G27  20480991.984 8  20480998.379    20480997.801 9  20480994.871 7 107628351.586 8  83866278.96649  80371835.729 7
G32  24105915.766 6  24105922.398    24105920.711 6                 126677449.362 6  98709733.83746
> 2021 01 15 00 07 30.0000000  0 10
G01  23506704.172 6  23506711.918    23506711.727 3  23506707.867 5 123528577.062 6  96256056.89843  92245383.907 5
G08  20709607.000 8  20709613.957    20709612.961 7  20709609.410 7 108829731.790 8  84802418.69347  81268973.549 7
G10  21137051.477 8  21137057.645    21137057.535 9  21137053.129 6 111075963.297 8  86552738.09149  82946399.621 6
G16  23780557.398 6                  23780560.879 4                 124967524.097 6  97377413.42844
G20  23018472.773 6                  23018476.012 4                 120962895.146 6  94256833.81544
G21  22090934.469 7                  22090937.047 6                 116088665.086 7  90458706.11146
G22  24967543.273 6                  24967544.824 4                 131205322.26316 102237923.88844
G23  22948352.430 7  22948356.809    22948356.426 5  22948357.773 5 120594418.116 7  93969701.55445  90054280.159 5
G27  20488207.914 8  20488213.973    20488213.426 9  20488210.391 7 107666269.751 8  83895825.58149  80400151.228 7
G32  24089391.008 6  24089397.863    24089396.430 6                 126590607.503 6  98642064.88246
> 2021 01 15 00 08 00.0000000  0 10
G01  23488512.680 6  23488520.473    23488520.289 4  23488516.238 5 123432979.463 6  96181565.31344  92173996.170 5
G08  20701839.406 8  20701846.387    20701845.152 7  20701841.852 6 108788911.972 8  84770611.03447  81238491.206 6
G10  21143744.453 8  21143750.359    21143750.195 9  21143745.852 6 111111133.061 8  86580143.10049  82972662.746 6
G16  23801731.336 6                  23801734.184 4                 125078791.680 6  97464115.44144
G20  23035778.820 6                  23035781.547 4                 121053837.378 6  94327697.87544
G21  22080805.063 7                  22080807.668 6                 116035434.952 7  90417228.07346
G22  24946373.055 5                  24946374.613 3                 131094080.293 5 102151241.76043
G23  22965361.242 7  22965364.977    22965364.656 5  22965366.359 5 120683797.228 7  94039347.59945  90121024.305 5
G27  20495508.609 8  20495514.988    20495514.398 9  20495511.531 7 107704637.243 8  83925722.31749  80428802.269 7
G32  24072898.945 6  24072905.762    24072905.188 6                 126503943.701 6  98574534.64046
> 2021 01 15 00 08 30.0000000  0 10
G01  23470347.813 6  23470355.492    23470355.148 4  23470351.066 5 123337522.389 6  96107183.18544  92102713.25015
G08  20694148.719 8  20694155.422    20694154.199 7  20694151.031 6 108748495.998 8  84739118.07147  81208310.447 6
G10  21150534.133 8  21150540.051    21150540.047 9  21150535.902 6 111146813.221 8  86607945.82049  82999307.036 6
G16  23822927.695 6                  23822930.328 4                 125190179.508 6  97550911.14244
G20  23053132.352 6                  23053135.180 4                 121145031.630 6  94398758.30844
G21  22070716.648 7                  22070718.719 6                 115982418.085 7  90375916.23946
G22  24925219.773 5                  24925222.727 3                 130982920.363 5 102064623.61543
G23  22982425.930 7  22982430.727    22982429.480 4  22982431.828 5 120773475.355 7  94109226.67044  90187991.687 5
G27  20502895.242 8  20502901.352    20502901.016 9  20502897.895 7 107743453.141 8  83955968.46649  80457788.169 7
G32  24056441.297 6  24056448.379    24056447.695 6                 126417460.323 6  98507145.00946
> 2021 01 15 00 09 00.0000000  0 10
G01  23452209.867 6  23452217.188    23452217.414 4  23452212.867 5 123242207.073 6  96032911.51344  92031536.293 5
G08  20686534.984 8  20686541.957    20686540.672 7  20686537.309 7 108708486.167 8  84707941.57647  81178432.983 7
G10  21157420.898 8  21157426.625    21157426.496 9  21157422.191 6 111183002.668 8  86636145.39249  83026331.635 6
G16  23844146.625 6                  23844149.438 4                 125301685.316 6  97637798.78744
G20  23070533.516 6                  23070535.941 4                 121236475.895 6  94470013.58244
G21  22060667.680 7                  22060670.504 6                 115929614.669 7  90334770.70646
G22  24904085.352 6                  24904085.102 4                 130871844.90916 101978071.25244
G23  22999547.828 7  22999552.551    22999552.332 5  22999553.703 5 120863450.404 7  94179337.09345  90255180.872 5
G27  20510366.922 8  20510373.340    20510372.777 9  20510369.605 7 107782717.613 8  83986564.15749  80487109.026 7
G32  24040019.563 6  24040026.602    24040025.266 6                 126331160.912 6  98439898.73046
> 2021 01 15 00 09 30.0000000  0 10
G01  23434099.047 6  23434106.762    23434106.277 3  23434102.184 5 123147034.517 6  95958751.08143  91960465.876 5
G08  20678998.891 8  20679005.703    20679004.637 7  20679001.352 6 108668884.233 8  84677082.92647  81148860.113 6
G10  21164403.898 8  21164409.797    21164409.660 9  21164405.387 6 111219700.072 8  86664740.77649  83053735.542 6
G16  23865386.773 6                  23865390.250 4                 125413306.261 6  97724776.13644
G20  23087981.859 6                  23087984.465 4                 121328168.036 6  94541462.00844
G21  22050660.039 7                  22050663.211 6                 115877024.589 7  90293791.42846
G22  24882964.078 6                  24882964.637 3                 130760856.27016 101891586.75443
G23  23016725.367 7  23016730.023    23016729.711 4  23016730.410 5 120953720.013 7  94249677.02444  90322589.975 5
G27  20517924.398 8  20517930.266    20517929.875 9  20517926.801 7 107822430.572 8  84017509.31349  80516764.817 7
G32  24023632.039 6  24023639.875    24023638.707 6                 126245048.584 6  98372798.23246
> 2021 01 15 00 10 00.0000000  0 10
G01  23416016.266 6  23416023.582    23416023.035 4  23416019.398 5 123052004.895 6  95884702.05244  91889502.218 5
G08  20671540.969 8  20671547.734    20671546.438 7  20671543.336 7 108629690.932 8  84646542.69247  81119592.394 7
G10  21171483.430 8  21171489.590    21171489.355 9  21171484.938 6 111256903.229 8  86693730.24649  83081517.117 6
G16  23886648.867 6                  23886652.305 4                 125525039.187 6  97811840.75844
G20  23105476.930 6                  23105479.789 4                 121420105.232 6  94613101.35344
G21  22040693.609 7                  22040696.371 6                 115824647.790 7  90252978.33246
G22  24861858.047 5                  24861861.762 3
G23  23033958.789 6  23033963.473    23033962.289 4  23033963.906 5 121044280.963 6  94320243.99944  90390216.71015
G27  20525566.609 8  20525572.414    20525572.148 9  20525569.262 7 107862591.047 8  84048803.18449  80546754.757 7
G32  24007282.156 6  24007289.094    24007288.211 6                 126159125.854 6  98305845.44246
> 2021 01 15 00 10 30.0000000  0 10
G01  23397959.805 6  23397966.863    23397966.914 4  23397962.813 5 122957119.296 6  95810765.19344  91818646.009 5
G08  20664160.539 8  20664167.461    20664166.293 7  20664163.219 7 108590908.279 8  84616322.44247  81090631.314 7
G10  21178658.664 8  21178665.117    21178664.836 9  21178660.578 6 111294610.825 8  86723112.78049  83109675.369 6
G16  23907932.367 6                  23907935.027 4                 125636881.636 6  97898990.71744
G20  23123018.250 6                  23123021.313 4                 121512285.255 6  94684929.93744
G21  22030767.016 7                  22030770.375 6                 115772484.838 7  90212331.86746
G22  24840772.281 5                  24840774.012 3                 130539145.32415 101718824.92343
G23  23051246.742 7  23051251.129    23051250.203 4  23051252.820 5 121135131.059 7  94391036.27944  90458059.248 5
G27  20533293.984 8  20533300.078    20533299.555 9  20533296.664 7 107903198.938 8  84080445.68749  80577078.819 7
G32  23990967.961 6  23990975.234    23990974.555 6                 126073395.904 6  98239042.89646
> 2021 01 15 00 11 00.0000000  0 10
G01  23379931.094 6  23379938.406    23379938.480 4  23379935.258 5 122862378.368 6  95736941.13644  91747897.984 5
G08  20656858.930 8  20656865.766    20656864.449 7  20656861.648 7 108552537.798 8  84586423.37247  81061978.037 7
G10  21185930.203 8  21185936.313    21185936.141 9  21185931.953 6 111332821.174 8  86752887.08449  83138209.079 6
G16  23929235.086 6                  23929238.715 4                 125748830.879 6  97986223.86644
G20  23140605.250 6                  23140608.387 4                 121604706.046 6  94756946.13644
G21  22020881.602 7                  22020884.320 6                 115720535.481 7  90171851.84746
G22  24819705.305 6                  24819706.586 4                 130428426.96816 101632550.89744
G23  23068590.117 7  23068594.078    23068593.293 5  23068595.266 5 121226267.609 7  94462051.77845  90526115.789 5
G27  20541106.453 8  20541112.605    20541111.961 9  20541109.137 7 107944253.886 8  84112436.55149  80607736.732 7
G32  23974691.227 6  23974698.770    23974697.793 6                 125987861.716 6  98172392.89546
> 2021 01 15 00 11 30.0000000  0 10
G01  23361930.023 6  23361937.504    23361937.387 4  23361932.883 5 122767783.005 6  95663230.47844  91677258.602 5
G08  20649635.773 8  20649642.867    20649641.484 7  20649638.523 7 108514580.970 8  84556846.61947  81033633.639 7
G10  21193296.570 8  21193302.578    21193302.551 9  21193298.129 6 111371532.731 8  86783051.92749  83167117.060 6
G16  23950558.914 6                  23950561.816 4                 125860883.905 6  98073537.92444
G20  23158237.570 6                  23158240.840 4                 121697365.047 6  94829147.93344
G21  22011036.516 7                  22011039.234 6                 115668799.708 7  90131538.24346
G22  24798653.836 6                  24798654.402 3                 130317802.915 6 101546350.32443
G23  23085986.891 6  23085990.934    23085990.031 5  23085991.613 5 121317688.174 6  94533288.57445  90594384.334 5
G27  20549003.820 8  20549010.242    20549009.449 9  20549006.535 7 107985755.565 8  84144775.50749  80638728.243 7
G32  23958452.750 6  23958459.895    23958458.039 6                 125902526.338 6  98105897.81046
> 2021 01 15 00 12 00.0000000  0 10
G01  23343957.570 6  23343963.965    23343963.488 4  23343960.422 5 122673334.131 6  95589633.94844  91606728.594 5
G08  20642492.320 8  20642498.750    20642497.711 7  20642494.719 7 108477039.597 8  84527593.60247  81005599.516 7
G10  21200758.391 8  21200764.074    21200764.188 9  21200759.961 6 111410743.942 8  86813606.12349  83196398.141 6
G16  23971900.719 6                  23971903.715 4                 125973037.987 6  98160930.68944
G20  23175915.289 6                  23175917.707 4                 121790259.959 6  94901533.58044
G21  22001232.352 7                  22001234.996 6                 115617277.389 7  90091390.97446
G22  24777621.094 6                  24777622.105 3                 130207274.994 6 101460224.75443
G23  23103437.008 6  23103441.383    23103440.668 4  23103441.605 5 121409390.258 6  94604744.72344  90662863.176 5
G27  20556986.320 8  20556992.598    20556992.145 9  20556989.035 7 108027703.633 8  84177462.31049  80670053.089 7
G32  23942252.852 7  23942259.309    23942257.949 6                 125817392.887 7  98039560.04546
> 2021 01 15 00 12 30.0000000  0 10
G01  23326011.906 6  23326019.516    23326019.605 4  23326014.578 5 122579032.531 6  95516152.18744  91536308.527 5
G08  20635427.430 8  20635434.547    20635433.191 7  20635430.234 7 108439915.290 8  84498665.57047  80977876.826 7
G10  21208314.719 8  21208320.641    21208320.641 9  21208316.359 6 111450453.207 8  86844548.40349  83226051.160 6
G16  23993260.391 6                  23993264.613 3                 126085291.363 6  98248400.86243
G20  23193637.188 6                  23193640.000 4                 121883388.874 6  94974101.55544
G21  21991468.281 7                  21991471.535 6                 115565968.454 7  90051409.97946
G22  24756606.398 6                  24756607.922 3                 130096844.657 6 101374175.14543
G23  23120940.438 6  23120944.727    23120943.758 4  23120945.164 5 121501371.392 6  94676418.31544  90731550.382 5
G27  20565053.445 8  20565059.914    20565059.465 9  20565056.215 7 108070097.793 8  84210496.70349  80701711.048 7
G32  23926091.570 7  23926098.316    23926097.180 6  23926094.227 5 125732464.422 7  97973382.03146  93891189.16815
> 2021 01 15 00 13 00.0000000  0 10
G01  23308094.555 6  23308103.102    23308102.309 4  23308098.906 5 122484878.724 6  95442785.57944  91465998.945 5
G08  20628442.586 8  20628449.438    20628448.383 7  20628445.227 7 108403209.455 8  84470063.63047  80950466.612 7
G10  21215965.820 8  21215971.516    21215971.629 9  21215967.141 6 111490658.645 8  86875877.32449  83256074.703 6
G16  24014640.375 6                  24014643.879 3                 126197640.729 6  98335945.80843
G20  23211402.305 6                  23211405.457 4                 121976749.125 6  95046849.79644
G21  21981745.117 7                  21981748.379 6                 115514873.580 7  90011595.79046
G22  24735612.289 6                  24735611.402 3                 129986514.102 6 101288203.24243
G23  23138496.469 7  23138500.594    23138500.199 4  23138501.293 5 121593628.757 7  94748307.17244  90800443.818 5
G27  20573205.680 8  20573212.102    20573211.648 9  20573208.602 7 108112937.397 8  84243878.19749  80733701.651 7
G32  23909968.703 6  23909976.273    23909975.367 6  23909972.559 5 125647743.654 6  97907365.85846  93827923.671 5
> 2021 01 15 00 13 30.0000000  0 10
G01  23290207.078 6  23290213.848    23290213.824 4  23290210.695 5 122390873.853 6  95369535.06444  91395800.501 5
G08  20621537.508 8  20621544.371    20621543.328 7  20621540.313 7 108366923.708 8  84441789.01747  80923370.126 7
G10  21223710.500 8  21223716.777    21223716.777 9  21223712.273 6 111531358.868 8  86907591.78449  83286467.733 6
G16  24036037.227 6                  24036040.969 3                 126310083.491 6  98423563.53043
G20  23229212.508 6                  23229214.957 4                 122070338.372 6  95119776.46744
G21  21972063.047 7                  21972066.133 6                 115463992.532 7  89971948.21946
G22  24714636.008 6                  24714636.102 3                 129876285.466 6 101202310.83043
G23  23156104.453 6  23156108.863    23156108.621 4  23156109.438 5 121686160.108 6  94820409.52544  90869541.956 5
G27  20581442.586 8  20581448.914    20581448.586 9  20581445.367 7 108156222.307 8  84277606.68949  80766024.765 7
G32  23893887.336 7  23893894.918    23893893.699 6  23893890.684 5 125563233.900 7  97841514.13946  93764815.820 5
> 2021 01 15 00 14 00.0000000  0 10
G01  23272346.836 6  23272354.074    23272353.234 4  23272349.535 5 122297018.524 6  95296401.07044  91325713.724 5
G08  20614713.094 8  20614719.777    20614718.598 7  20614715.340 7 108331059.663 8  84413843.00447  80896588.522 7
G10  21231549.289 8  21231555.340    21231555.137 9  21231551.066 6 111572552.031 8  86939690.34349  83317228.863 6
G16  24057452.461 6                  24057455.539 3                 126422617.003 6  98511251.96643
G20  23247064.984 6                  23247067.727 4                 122164154.466 6  95192879.91144
G21  21962421.586 7                  21962424.070 6                 115413325.179 7  89932467.17646
G22  24693678.367 6                  24693680.699 3                 129766160.312 6 101116499.03443
G23  23173764.336 7  23173768.949    23173768.184 4  23173769.086 5 121778962.746 7  94892723.24944  90938842.59815
G27  20589764.148 8  20589770.395    20589769.969 9  20589766.828 7 108199951.965 8  84311681.73449  80798680.009 7
G32  23877846.617 7  23877853.164    23877852.523 6  23877848.871 5 125478938.027 7  97775829.05246  93701867.574 5
> 2021 01 15 00 14 30.0000000  0 10
G01  23254515.711 6  23254522.344    23254522.199 4  23254518.355 5 122203313.604 6  95223384.24244  91255739.300 5
G08  20607968.805 8  20607975.738    20607974.449 7  20607971.203 7 108295618.736 8  84386226.69547  80870122.906 7
G10  21239481.469 8  21239487.910    21239487.527 9  21239483.391 6 111614236.489 8  86972171.74349  83348356.845 6
G16  24078883.273 6                  24078886.328 3                 126535238.059 6  98599008.65543
G20  23264960.125 6                  23264963.586 4                 122258195.297 6  95266158.46644
G21  21952820.344 7                  21952822.945 6                 115362871.615 7  89893152.70546
G22  24672742.781 6                  24672743.605 3                 129656140.700 6 101030769.49243
G23  23191475.148 6  23191479.801    23191478.914 4  23191480.609 5 121872034.211 6  94965246.46444  91008343.973 5
G27  20598170.359 8  20598176.488    20598175.766 9  20598172.773 7 108244125.973 8  84346103.02649  80831667.107 7
G32  23861846.664 6  23861853.539    23861852.703 6  23861849.609 5 125394859.074 6  97710312.96646  93639081.370 5
> 2021 01 15 00 15 00.0000000  0 11
G01  23236713.492 6  23236719.910    23236719.219 4  23236716.328 5 122109759.874 6  95150485.24944  91185877.76615
G08  20601305.313 8  20601312.270    20601311.129 7  20601307.887 7 108260602.318 8  84358941.17547  80843974.271 7
G10  21247506.883 8  21247513.109    21247512.984 9  21247508.785 6 111656410.634 8  87005034.71449  83379850.573 6
G14  25202895.063 5  25202899.246    25202898.438 2                 132442096.95215 103201653.99042
G16  24100330.930 6                  24100334.973 4                 126647944.895 6  98686832.15444
G20  23282897.586 6                  23282900.742 4                 122352458.264 6  95339610.12244
G21  21943260.242 7                  21943262.680 6                 115312631.578 7  89854004.61846
G22  24651827.289 6                  24651828.504 3                 129546228.346 6 100945123.56243
G23  23209236.664 6  23209241.141    23209240.629 4  23209241.852 5 121965371.967 6  95037977.15744  91078044.270 5
G27  20606660.430 8  20606667.168    20606666.293 9  20606663.301 7 108288743.965 8  84380870.28749  80864985.711 7
G32  23845889.055 6  23845895.996    23845895.223 6  23845892.719 5 125311000.092 6  97644968.31446  93576459.45115
> 2021 01 15 00 15 30.0000000  0 11
G01  23218939.023 6  23218946.094    23218945.664 4  23218941.629 5 122016358.213 6  95077704.75844  91116129.822 5
G08  20594723.039 8  20594730.027    20594728.852 7  20594725.570 7 108226012.222 8  84331987.85247  80818144.007 7
G10  21255625.633 8  21255631.453    21255631.180 9  21255627.316 6 111699072.738 8  87038277.91649  83411708.621 6
G14  25185348.133 5  25185352.660    25185351.465 2                 132349888.510 5 103129803.13842
G16  24121794.008 6                  24121797.363 3                 126760734.264 6  98774719.95343
G20  23300877.211 6                  23300880.285 4                 122446941.309 6  95413233.28044
G21  21933740.430 7                  21933743.352 6                 115262605.557 7  89815023.31246
G22  24630931.945 6                  24630933.926 3                 129436425.569 6 100859562.98443
G23  23227048.391 7  23227052.754    23227052.117 4  23227053.379 5 122058973.607 7  95110913.48944  91147941.536 5
G27  20615235.469 8  20615241.906    20615241.273 9  20615238.195 7 108333805.496 8  84415983.15649  80898635.572 7
G32  23829973.461 7  23829980.609    23829979.984 6  23829976.277 5 125227364.142 7  97579797.47446  93514004.05015
> 2021 01 15 00 16 00.0000000  0 11
G01  23201194.492 6  23201201.566    23201201.004 4  23201197.105 5 121923109.341 6  95005043.30644  91046495.923 5
G08  20588222.367 8  20588229.000    20588227.961 7  20588224.668 7 108191849.597 8  84305367.60947  80792632.974 7
G10  21263836.586 8  21263842.281    21263842.004 9  21263837.871 6 111742220.994 8  87071899.93649  83443929.729 6
G14  25167857.617 6  25167861.621    25167860.547 3                 132257969.437 6 103058177.99343
G16  24143272.352 6                  24143275.430 3                 126873603.717 6  98862670.18943
G20  23318898.227 6                  23318901.012 4                 122541641.893 6  95487025.93744
G21  21924261.578 7                  21924264.359 6                 115212793.713 7  89776208.88646
G22  24610058.539 6                  24610060.191 3                 129326734.283 6 100774089.30143
G23  23244909.672 6  23244914.211    23244913.961 4  23244914.828 5 122152836.500 6  95184053.40844  91218033.960 5
G27  20623894.930 8  20623901.234    20623900.418 9  20623897.688 7 108379310.048 8  84451441.23649  80932616.199 7
G32  23814101.828 7  23814108.121    23814107.453 6  23814104.395 5 125143954.120 7  97514802.66946  93451717.327 5
> 2021 01 15 00 16 30.0000000  0 11
G01  23183478.258 6  23183485.598    23183485.008 4  23183481.594 5 121830013.477 6  94932501.07944  90976976.292 5
G08  20581802.938 8  20581809.891    20581808.586 7  20581805.387 7 108158115.623 8  84279081.39647  80767441.993 7
G10  21272139.219 8  21272145.156    21272144.984 9  21272140.500 6 111785853.221 8  87105899.07249  83476512.225 6
G14  25150420.688 5  25150425.457    25150423.434 3                 132166342.221 5 102986780.07243
G16  24164765.523 6                  24164768.887 3                 126986550.027 6  98950680.29343
G20  23336960.422 6                  23336963.484 4                 122636557.572 6  95560986.18744
G21  21914823.305 7                  21914826.191 6                 115163195.509 7  89737560.93946
G22  24589207.438 6                  24589208.102 3                 129217156.168 6 100688703.79343
G23  23262820.789 6  23262824.762    23262824.563 4  23262825.566 5 122246957.643 6  95257394.52944  91288319.234 5
G27  20632638.156 8  20632644.617    20632643.961 9  20632641.027 7 108425256.615 8  84487243.74549  80966926.943 7
G32  23798272.266 7  23798278.727    23798278.184 6  23798274.949 5 125060772.550 7  97449985.86046  93389601.224 5
> 2021 01 15 00 17 00.0000000  0 11
G01  23165792.609 6  23165799.777    23165799.441 4  23165795.465 5 121737071.939 6  94860079.10244  90907571.932 5
G08  20575465.484 8  20575472.406    20575471.383 7  20575467.762 6 108124812.699 8  84253131.06247  80742572.915 6
G10  21280534.000 8  21280540.039    21280540.055 9  21280535.578 6 111829968.011 8  87140274.23849  83509455.069 6
G14  25133040.914 5  25133045.008    25133044.414 3                 132075009.889 5 102915612.08643
G16  24186271.625 6                  24186276.105 3                 127099571.042 6  99038748.58743
G20  23355062.352 6                  23355065.684 4                 122731686.339 6  95635112.49544
G21  21905425.734 7                  21905428.621 6                 115113810.995 7  89699079.52146
G22  24568376.266 6                  24568378.457 3                 129107693.251 6 100603408.04043
G23  23280779.820 7  23280784.105    23280783.660 4  23280785.246 5 122341334.847 7  95330935.21244  91358795.720 5
G27  20641466.047 8  20641472.000    20641471.551 9  20641468.441 7 108471645.088 8  84523390.59649  81001567.672 7
G32  23782486.859 7  23782494.758    23782492.270 6  23782489.789 5 124977822.824 7  97385349.70846  93327658.262 5
> 2021 01 15 00 17 30.0000000  0 11
G01  23148135.664 6  23148143.023    23148143.008 4  23148139.035 5 121644285.377 6  94787777.92844  90838283.310 5
G08  20569210.508 8  20569217.383    20569216.297 7  20569212.777 7 108091941.599 8  84227517.20747  80718026.319 7
G10  21289020.172 8  21289026.246    21289026.316 9  21289021.836 6 111874563.524 8  87175023.99549  83542756.947 6
G14  25115717.539 6  25115721.980    25115720.984 3                 131983974.876 6 102844675.62043
G16  24207794.313 6                  24207796.551 3                 127212663.182 6  99126872.30543
G20  23373205.656 6                  23373208.098 4                 122827025.718 6  95709402.90444
G21  21896069.141 8                  21896071.625 6                 115064640.141 8  89660764.57946
G22  24547568.703 6                  24547569.871 3                 128998347.176 6 100518203.36343
G23  23298787.594 7  23298792.070    23298791.371 4  23298792.934 5 122435965.555 7  95404673.43344  91429461.531 5
G27  20650377.250 8  20650383.477    20650382.984 9  20650379.941 7 108518474.921 8  84559881.36249  81036537.998 7
G32  23766746.703 6  23766754.176    23766753.094 6  23766749.465 5 124895107.800 6  97320896.44546  93265890.577 5
> 2021 01 15 00 18 00.0000000  0 11
G01  23130508.414 6  23130516.059    23130515.762 4  23130511.785 5 121551654.871 6  94715598.34344  90769111.198 5
G08  20563037.938 8  20563044.563    20563043.520 7  20563040.152 7 108059504.070 8  84202241.21247  80693803.480 7
G10  21297597.781 8  21297603.816    21297603.996 9  21297599.434 6 111919638.300 8  87210147.20149  83576416.675 6
G14  25098450.430 5  25098455.488    25098454.801 3                 131893240.154 5 102773973.32143
G16  24229327.164 6                  24229330.238 3                 127325824.938 6  99215050.33543
G20  23391386.898 6                  23391389.914 4                 122922573.830 6  95783855.97344
G21  21886752.820 7                  21886755.684 6                 115015683.596 7  89622616.63546
G22  24526783.602 6                  24526784.684 3                 128889119.940 6 100433091.20143
G23  23316843.422 6  23316847.320    23316846.414 4  23316848.434 5 122530847.604 6  95478607.49344  91500314.972 5
G27  20659372.414 8  20659378.816    20659378.262 9  20659375.348 7 108565745.901 8  84596715.88949  81071837.751 7
G32  23751052.531 6  23751059.453    23751058.820 6  23751055.055 5 124812630.887 6  97256628.73446  93204300.661 5
> 2021 01 15 00 18 30.0000000  0 11
G01  23112910.945 6  23112918.633    23112918.258 4  23112913.535 5 121459180.815 6  94643540.66844  90700055.944 5
G08  20556947.859 8  20556954.547    20556953.484 7  20556950.102 7 108027501.030 8  84177303.77147  80669905.112 7
G10  21306266.234 8  21306271.797    21306271.980 9  21306267.582 6 111965190.225 8  87245642.21049  83610432.729 6
G14  25081242.180 5  25081246.363    25081245.758 3                 131802808.071 5 102703506.69943
G16  24250873.484 6                  24250877.133 3                 127439053.430 6  99303280.30943
G20  23409608.648 6                  23409611.543 4                 123018328.267 6  95858469.84044
G21  21877477.391 8                  21877480.137 6                 114966941.006 8  89584635.39546
G22  24506020.891 6                  24506022.473 3                 128780013.345 6 100348073.13943
G23  23334946.031 6  23334950.098    23334949.281 4  23334951.070 5 122625978.032 6  95552735.11344  91571353.936 5
G27  20668451.438 8  20668457.680    20668457.391 9  20668454.316 7 108613457.100 8  84633893.43849  81107466.219 7
G32  23735403.742 7  23735410.238    23735409.469 6  23735406.223 5 124730394.610 7  97192548.52746  93142890.451 5
> 2021 01 15 00 19 00.0000000  0 11
G01  23095343.797 6  23095351.602    23095351.027 4  23095346.332 5 121366864.148 6  94571605.62944  90631118.129 5
G08  20550941.375 8  20550947.754    20550946.746 7  20550943.539 7 107995934.642 8  84152706.58447  80646332.807 7
G10  21315024.586 8  21315030.367    21315030.297 9  21315026.613 6 112011217.506 8  87281507.62749  83644803.772 6
G14  25064092.195 6  25064096.023    25064095.172 3                 131712681.218 6 102633277.97143
G16  24272433.508 6                  24272435.961 3                 127552345.811 6  99391560.08343
G20  23427869.031 6                  23427871.871 4                 123114286.236 6  95933242.28044
G21  21868242.484 8                  21868245.125 6                 114918412.046 8  89546820.63346
G22  24485282.156 6                  24485283.453 3                 128671029.247 6 100263150.46143
G23  23353095.422 6  23353099.938    23353099.160 4  23353100.645 5 122721354.417 6  95627054.38144  91642576.550 5
G27  20677614.492 8  20677620.793    20677620.156 9  20677617.359 7 108661608.069 8  84671413.67049  81143423.129 7
G32  23719800.250 6  23719807.430    23719806.566 6  23719803.988 5 124648402.048 6  97128658.22946  93081662.257 5
> 2021 01 15 00 19 30.0000000  0 11
G01  23077806.211 6  23077814.477    23077813.988 4  23077809.789 5 121274705.566 6  94499793.76644  90562298.467 5
G08  20545017.508 8  20545024.160    20545023.230 7  20545020.008 7 107964806.054 8  84128450.52947  80623087.398 7
G10  21323873.563 8  21323879.426    21323879.027 9  21323875.129 6 112057718.392 8  87317742.09349  83679528.458 6
G14  25047000.742 6  25047004.313    25047003.563 3                 131622862.337 6 102563289.20243
G16  24294003.156 6                  24294006.727 3                 127665698.914 6  99479887.16043
G20  23446167.289 6                  23446170.367 4                 123210446.030 6  96008172.01244
G21  21859048.625 8                  21859051.355 6                 114870097.245 8  89509172.74546
G22  24464567.000 6                  24464568.164 3                 128562169.696 6 100178324.88043
G23  23371291.656 6  23371295.770    23371295.328 4  23371296.105 5 122816974.397 6  95701563.44144  91713981.080 5
G27  20686861.125 8  20686866.871    20686866.434 9  20686863.613 7 108710198.301 8  84709276.18849  81179708.029 7
G32  23704244.461 6  23704251.551    23704250.676 6  23704247.645 5 124566656.215 6  97064960.18246  93020618.33215
> 2021 01 15 00 20 00.0000000  0 11
G01  23060299.461 6  23060307.027    23060307.156 4  23060303.574 5 121182705.889 6  94428105.72744  90493597.449 5
G08  20539177.422 8  20539184.043    20539183.156 7  20539179.637 7 107934116.421 8  84104536.52447  80600169.813 7
G10  21332812.047 8  21332818.180    21332817.969 9  21332813.645 6 112104691.002 8  87354344.13349  83714605.398 6
G14  25029967.266 6  25029971.277    25029971.133 2                 131533354.020 6 102493542.51842
G16  24315584.102 6                  24315587.883 3                 127779110.644 6  99568259.94443
G20  23464504.320 6                  23464506.867 3                 123306805.338 6  96083257.16943
G21  21849895.141 8                  21849897.977 6                 114821996.513 8  89471691.65946
G22  24443875.625 6                  24443877.000 4                 128453436.490 6 100093597.71044
G23  23389533.000 7  23389537.469    23389536.965 4  23389537.520 5 122912835.282 7  95776260.21244  91785565.560 5
G27  20696190.867 8  20696197.160    20696196.316 9  20696193.188 7 108759227.150 8  84747480.47349  81216320.469 7
G32  23688736.930 6  23688743.441    23688742.625 6  23688739.363 5 124485160.027 6  97001456.67146  92959760.743 5
> 2021 01 15 00 20 30.0000000  0 11
G01  23042823.344 6  23042830.141    23042829.848 4  23042826.066 5 121090865.601 6  94356541.86344  90425015.418 5
G08  20533421.008 8  20533427.977    20533426.973 7  20533423.621 7 107903867.462 8  84080965.89947  80577581.299 7
G10  21341840.195 8  21341846.016    21341846.039 9  21341841.379 6 112152133.211 8  87391312.08449  83750033.017 6
G14  25012994.289 5  25012998.340    25012998.254 3                 131444158.627 5 102424039.53843
G16  24337176.711 6                  24337179.949 3                 127892577.997 6  99656676.04243
G20  23482878.328 6                  23482881.453 3                 123403361.488 6  96158495.70143
G21  21840782.430 8                  21840785.406 6                 114774109.231 8  89434376.90446
G22  24423208.781 6                  24423209.801 4                 128344831.172 6 100008970.23444
G23  23407819.984 6  23407824.586    23407823.957 4  23407824.715 5 123008934.319 6  95851142.59244  91857327.808 5
G27  20705603.867 8  20705610.359    20705609.531 9  20705606.465 7 108808693.730 8  84786025.85749  81253259.788 7
G32  23673277.102 7  23673283.582    23673282.906 6  23673279.422 5 124403916.218 7  96938149.81246  92899091.711 5
> 2021 01 15 00 21 00.0000000  0 11
G01  23025377.063 6  23025383.926    23025383.863 4  23025379.773 5 120999185.925 6  94285103.17444  90356553.367 5
G08  20527749.008 8  20527755.887    20527754.813 7  20527751.875 7 107874060.497 8  84057739.68147  80555322.845 7
G10  21350957.055 8  21350963.359    21350963.016 9  21350958.367 6 112200043.579 8  87428644.84149  83785810.250 6
G14  24996081.492 6  24996084.395    24996083.059 3                 131355279.02316 102354782.65043
G16  24358778.945 6                  24358782.078 3                 128006098.397 6  99745133.49843
G20  23501289.633 6                  23501292.219 3                 123500112.841 6  96233886.36143
G21  21831710.641 8                  21831713.496 6                 114726436.265 8  89397229.14346
G22  24402565.641 6                  24402568.383 4                 128236356.096 6  99924444.17944
G23  23426152.133 7  23426156.484    23426156.223 4  23426157.398 5 123105269.472 7  95926208.93644  91929266.352 5
G27  20715100.492 8  20715106.828    20715106.102 9  20715103.195 7 108858597.921 8  84824912.22749  81290525.882 7
G32  23657864.484 6  23657872.195    23657871.172 6  23657868.145 5 124322928.132 6  96875042.23146  92838613.594 5
> 2021 01 15 00 21 30.0000000  0 11
G01  23007961.023 6  23007968.672    23007968.477 4  23007965.609 5 120907667.553 6  94213790.18544  90288211.688 5
G08  20522161.383 8  20522168.102    20522167.445 7  20522163.738 7 107844697.307 8  84034859.26347  80533395.781 7
G10  21360162.859 8  21360168.867    21360168.445 9  21360164.574 6 112248420.245 8  87466340.95049  83821935.703 6
G14  24979228.234 6  24979232.332    24979232.043 3                 131266717.92616 102285774.05043
G16  24380389.906 6                  24380394.043 3                 128119669.359 6  99833630.29443
G20  23519737.078 6                  23519740.000 3                 123597056.914 6  96309427.19343
G21  21822679.477 8                  21822682.414 6                 114678977.227 8  89360248.08546
G22  24381949.609 6                  24381950.688 4                 128128013.178 6  99840021.15944
G23  23444528.242 6  23444532.824    23444532.164 4  23444533.711 5 123201838.175 6  96001457.26044  92001379.358 5
G27  20724679.961 8  20724686.445    20724685.805 9  20724682.844 7 108908939.048 8  84864139.08449  81328118.283 7
G32  23642502.609 6  23642509.508    23642508.238 6  23642506.184 5 124242198.696 6  96812136.18946  92778328.694 5
> 2021 01 15 00 22 00.0000000  0 11
G01  22990576.844 6  22990584.195    22990583.848 4  22990580.988 5 120816311.363 6  94142603.53344  90219991.239 5
G08  20516658.313 8  20516665.293    20516664.273 7  20516660.988 7 107815778.978 8  84012325.49647  80511800.901 7
G10  21369456.805 8  21369462.836    21369462.605 9  21369458.617 6 112297261.352 8  87504398.96349  83858407.951 6
G14  24962436.680 5  24962441.578    24962439.727 2                 131178478.06315 102217015.68242
G16  24402011.336 6                  24402013.871 3                 128233288.176 6  99922164.47143
G20  23538221.891 6                  23538224.199 3                 123694191.253 6  96385116.28443
G21  21813689.039 8                  21813691.961 6                 114631732.325 8  89323433.88346
G22  24361357.641 6                  24361359.434 3                 128019804.439 6  99755702.66043
G23  23462948.828 6  23462952.977    23462952.582 4  23462953.984 5 123298637.997 6  96076885.70044  92073664.930 5
G27  20734342.602 8  20734348.984    20734348.434 9  20734345.664 7 108959716.526 8  84903705.94749  81366036.564 7
G32  23627189.820 7  23627196.750    23627195.461 6  23627192.957 5 124161730.908 7  96749434.01946  92718239.07415
> 2021 01 15 00 22 30.0000000  0 11
G01  22973223.656 6  22973230.832    22973230.809 4  22973226.715 5 120725118.049 6  94071543.85544  90151892.359 5
G08  20511240.516 8  20511247.418    20511246.207 7  20511243.039 7 107787307.076 8  83990139.59647  80490539.432 7
G10  21378839.055 8  21378845.141    21378844.676 9  21378840.730 6 112346564.979 8  87542817.37349  83895225.606 6
G14  24945705.203 5  24945709.031    24945710.605 2                 131090561.992 5 102148509.55642
G16  24423641.633 6                  24423644.355 3                 128346952.747 6 100010734.29543
G20  23556741.422 6                  23556743.742 3                 123791514.214 6  96460952.36943
G21  21804739.781 8                  21804742.426 6                 114584701.758 8  89286786.69046
G22  24340791.742 6                  24340792.973 4                 127911731.321 6  99671489.84344
G23  23481413.180 6  23481417.090    23481416.336 4  23481417.879 5 123395666.382 6  96152492.24244  92146121.143 5
G27  20744088.078 8  20744094.563    20744094.027 9  20744090.895 7 109010929.710 8  84943612.31649  81404280.145 7
G32  23611928.203 7  23611934.934    23611933.992 6  23611930.293 5 124081527.686 7  96686937.99746  92658347.06515
> 2021 01 15 00 23 00.0000000  0 11
G01  22955901.625 6  22955908.484    22955908.434 4  22955904.332 5 120634088.211 6  94000611.50144  90083915.518 5
G08  20505907.586 8  20505914.430    20505913.324 7  20505910.242 7 107759282.926 8  83968302.58947  80469612.308 7
G10  21388308.969 8  21388314.918    21388314.758 9  21388310.813 6 112396329.021 8  87581594.55649  83932387.052 6
G14  24929039.164 6  24929043.617    24929042.395 3  24929044.063 5 131002971.94016 102080257.58443  97826909.52215
G16  24445279.594 6                  24445282.930 3                 128460660.130 6 100099337.42143
G20  23575296.391 6                  23575298.906 3                 123889022.970 6  96536933.23843
G21  21795830.195 8                  21795833.547 6                 114537885.129 8  89250306.21046
G22  24320253.563 6                  24320254.125 4                 127803795.911 6  99587384.35344
G23  23499919.344 6  23499924.242    23499923.387 4  23499924.918 5 123492920.631 6  96228274.74244  92218746.107 5
G27  20753916.258 8  20753922.633    20753922.262 9  20753919.184 6 109062577.680 8  84983857.49049  81442848.433 6
G32  23596716.977 6  23596723.605    23596723.109 6  23596719.266 5 124001591.774 6  96624650.28446  92598654.645 5
> 2021 01 15 00 23 30.0000000  0 11
G01  22938610.117 6  22938617.785    22938617.461 4  22938612.547 5 120543222.848 6  93929807.34144  90016061.569 5
G08  20500660.289 8  20500667.355    20500666.035 7  20500662.750 7 107731707.727 8  83946815.41647  80449020.435 7
G10  21397865.891 8  21397872.188    21397872.020 9  21397867.457 6 112446551.851 8  87620729.22349  83969891.134 6
G14  24912434.375 6  24912438.098    24912435.734 3                 130915710.81216 102012261.85143
G16  24466924.000 6                  24466927.711 3                 128574407.509 6 100187971.74643
G20  23593886.547 6                  23593888.840 3                 123986715.448 6  96613057.21243
G21  21786962.500 8                  21786965.184 6                 114491282.608 8  89213992.56946
G22  24299740.328 6                  24299741.234 4                 127695999.998 6  99503387.56244
G23  23518468.617 6  23518473.785    23518472.746 4  23518474.059 5 123590398.549 6  96304231.58044  92291538.048 5
G27  20763827.391 8  20763833.828    20763833.027 9  20763830.074 6 109114660.094 8  85024441.17849  81481741.148 6
G32  23581556.695 7  23581563.934    23581563.168 6  23581559.578 5 123921926.376 7  96562573.35746  92539164.275 5
> 2021 01 15 00 24 00.0000000  0 11
G01  22921350.461 6  22921357.629    22921357.723 4  22921353.219 5 120452522.556 6  93859131.79744  89948330.838 5
G08  20495498.719 8  20495505.156    20495504.531 7  20495500.930 7 107704582.660 8  83925678.99247  80428764.694 7
G10  21407509.930 8  21407516.188    21407516.133 9  21407511.086 6 112497231.300 8  87660219.70749  84007736.158 6
